location_id,is_verified,is_hidden,is_location_screening_patients,is_location_collecting_specimens,location_name,location_address_street,location_address_locality,location_address_region,location_address_postal_code,lat,lng,location_place_of_service_type,location_contact_phone_main,location_contact_url_main,location_hours_of_operation,is_location_accepting_third_party_orders_for_testing,is_location_only_testing_patients_that_meet_criteria,is_location_by_appointment_only,location_contact_phone_appointments,location_contact_url_appointments,location_specific_testing_criteria,additional_information_for_patients,data_source,is_ready_for_prod,location_address_district,geometry
6ca2fc6d-7e78-4065-8906-ef610f3bfc3c,f,f,t,f,Olivet Health Department,140 Euclid Street,Olivet,South Dakota,,43.2410819,-97.6746926,Public Health Department,605-387-4218,,,,,,,,,,provider website,,,POINT (-97.6746926 43.2410819)
4ec75b5d-b8fe-48d8-9f7c-73400ecd16ad,f,f,t,f,Montana Health Department,220 West Lamme Street,Bozeman,Montana,,45.681274,-111.04208999999999,Public Health Department,406-522-2271,,,,,,,,,,provider website,,,POINT (-111.04209 45.681274)
a8ee7594-6166-41b0-a8a7-119b1c0973ce,t,f,t,f,UW Medical Center - Northwest,1550 N 115th St.,Seattle,WA,98133.0,47.712307,-122.33911,Public Health Department,877-694-4677,https://www.uwmedicine.org/locations/northwest-hospital,,f,t,t,,,https://www.doh.wa.gov/Emergencies/NovelCoronavirusOutbreak2020/TestingforCOVID19,https://www.doh.wa.gov/Emergencies/Coronavirus,provider website,,,POINT (-122.33911 47.712307)
13ca33b3-8287-44c0-a226-7df76a6a303f,f,f,t,f,Health Officer - Concord,385 West Main Street,Concord,Vermont,,44.461197,-71.69618,Public Health Department,802-695-1094,http://www.concordvt.us/health.php,,,,,,,,,provider website,,,POINT (-71.69618 44.461197)
3aaff55d-3571-4dbf-9439-0353426c40e5,f,f,t,f,Oklahoma State Department of Health,1000 Northeast 10th Street,Oklahoma,Oklahoma,,35.477990000000005,-97.48937,Public Health Department,405-271-5600,http://www.ok.gov/health/,,,,,,,,,provider website,,,POINT (-97.48937 35.47799)
cabfe6cb-6872-4f17-9827-a815bc90a6c1,f,f,t,f,Mississippi State Health Department,901 Union Road,Tylertown,Mississippi,,31.130803999999998,-90.13838,Public Health Department,601-876-4924,,,,,,,,,,provider website,,,POINT (-90.13838 31.130804)
d8af4915-9405-4b53-b9d5-ebb75d47e792,f,f,t,f,White County Health Department,112 Brantley Rd,Searcy,Arkansas,,35.206802,-91.73356,Public Health Department,501-268-6102,http://www.healthyarkansas.com/units/new.php#beebe,,,,,,,,,provider website,,,POINT (-91.73356 35.206802)
706630af-ab5a-4853-adaa-55f7d5efc948,t,f,t,t,Skokie Hospital,9600 Gross Point Road,Skokie,IL,60076.0,42.056227500000006,-87.7400858,Hospital,847.677.9600,https://www.northshore.org/locations/our-hospitals/skokie-hospital/,,f,t,f,847.432.5849,,,,entity website,,,POINT (-87.7400858 42.0562275)
8e8b8a95-8708-4c8c-b021-3d4f236b5abe,f,f,t,f,Gulf County Health Department,807 Florida 22,Wewahitchka,Florida,,30.118229,-85.20976,Public Health Department,850-639-4414,,,,,,,,,,provider website,,,POINT (-85.20976 30.118229)
ddf04d63-3b36-4e3e-8364-17c3871bb3af,f,f,t,f,Mineral County Health Department,HARLEY O STAGGERS SR Dr,Keyser,West Virginia,,39.4287312,-78.9859962,Public Health Department,301-786-4459,,,,,,,,,,provider website,,,POINT (-78.9859962 39.4287312)
212834b1-d385-4ce6-8d60-0190403d7f47,f,t,t,f,Saint Louis County Department of Health,111 South Meramec Avenue,Clayton,MO,,38.648834,-90.33985,Public Health Department,314-615-0600,http://www.stlouisco.com/doh/index.cfm,,f,t,f,,,,,dph website,,,POINT (-90.33985 38.648834)
d0aba88a-5d7d-4706-98ef-d1fb76333533,f,f,t,f,Royalton Health Officer,58 Safford Street,South Royalton,Vermont,,43.81861,-72.5195,Public Health Department,802-763-7776,http://healthvermont.gov/local/district/springfield.aspx,,,,,,,,,provider website,,,POINT (-72.5195 43.81861)
afa32be0-ff57-48f5-babe-16600a42d3a2,t,f,t,f,Georgia State Health Department,1641 South Broad Street,Cairo,GA,,30.855818,-84.209854,Public Health Department,229-377-7082,https://dph.georgia.gov/,,t,t,f,,,,,provider website,,,POINT (-84.209854 30.855818)
c15f786c-5b4a-4bcd-8a0a-7707ea47c3d7,f,f,t,f,Girard Health Department,"Ste 5, 100 W Main St",Girard,Ohio,,41.15516029999999,-80.7032445,Public Health Department,330-545-6048,,,,,,,,,,provider website,,,POINT (-80.7032445 41.1551603)
f0f7d7ec-dbfb-42c1-8699-2d77995b6e25,f,t,f,f,Newbury Board of Health,25 High Road,Newbury,MA,,42.79788,-70.86169,Public Health Department,978-465-0862,http://www.townofnewbury.org/pages/newburyma_health/index,,,t,t,211,,https://www.mass.gov/doc/covid-19-pui-criteria/download,"BEGINNING Saturday, March 14, 2020, residents can call 2-1-1 to learn more about COVID-19 prevention, symptoms, treatment. Information about testing, and guidance for people planning or returning from travel. This service is available 24/7 in multiple languages.",provider website,,,POINT (-70.86169 42.79788)
4fb621f8-0f0e-43f0-b575-434eebaa9175,f,f,f,f,Roanoke County/Salem Health Department,105 East Calhoun Street,Salem,Virginia,,37.292194,-80.056366,Public Health Department,540-387-5530,http://www.vdh.state.va.us/lhd/alleghany/salem/,,f,t,f,,,,,provider website,,,POINT (-80.056366 37.292194)
9798ad27-9095-4a49-87cd-1c20d6e78431,f,f,t,f,West Allis Health Department,7120 West National Avenue,West Allis,Wisconsin,,43.012764000000004,-88.0017,Public Health Department,414-302-8600,http://www.ci.west-allis.wi.us/health/health_services.htm,,,,,,,,,provider website,,,POINT (-88.0017 43.012764)
d97924a6-7d8c-4aab-bf1c-45f902ec18b3,f,f,f,f,St Louis County Health Department,"Ste 300, 325 W 1st St",Duluth,Minnesota,,46.79074,-92.09519,Public Health Department,218-725-5210,,,f,t,f,,,,,provider website,,,POINT (-92.09519 46.79074)
dd2f8052-0dba-4650-822c-de88c41b8c5c,t,f,f,f,Grayson County Health Department,515 North Walnut Street,Sherman,TX,,33.641056,-96.60943,Public Health Department,903-893-0131,http://www.co.grayson.tx.us/health%20department/hlthdptmain.htm,"7:00 a.m. – 8:00 p.m., 7 days per week",t,t,f,,,,People can get tested for COVID‑19 at drive‑thru locations in certain parts of Texas. Locations may use different screening criteria to determine if you are able get tested. Please contact the drive‑thru provider to see what their testing criteria is. We will update the drive‑thru testing list as information becomes available,dph website,,,POINT (-96.60943 33.641056)
26372081-fafc-4da3-8d1f-24b404132501,f,f,t,t,Southeastern Utah District Health Department- San Juan County - Blanding Office,193 East Center Street,Blanding,Utah,,37.62545,-109.475624,Hospital,435-678-2723,http://www.southeastuthealth.org/sanjuan.html,,f,t,t,,https://healthcare.utah.edu/virtual-care/virtual-visits/,https://healthcare.utah.edu/coronavirus/#whoshouldgettested,"If you are experiencing COVID-19 (coronavirus) related symptoms, please call 801-587-0712 before coming into the hospital, clinic, or health center.",provider website,,,POINT (-109.475624 37.62545)
12ab0a29-16f7-4b9e-8863-a5a99052a7fa,f,f,f,f,Sioux Falls Health Department,300 S Phillips Ave,Sioux Falls,South Dakota,,43.5443644,-96.72640320000001,Public Health Department,605-367-5363,,,f,t,f,,,,,provider website,,,POINT (-96.7264032 43.5443644)
2e99fcea-080e-4065-8461-7d7e3c104cf3,f,f,t,f,Wilton Health Department,238 Danbury Road,Wilton,Connecticut,,41.188183,-73.42518000000001,Public Health Department,203-563-0174,http://www.wiltonct.org/departments/health.html,,,,,,,,,provider website,,,POINT (-73.42518 41.188183)
cd183645-9d57-46bf-964e-2ee900a11c55,f,f,t,f,Mississippi State Government Public Health District 8 Southeast,602 Adeline Street,Hattiesburg,Mississippi,,31.3242151,-89.29757740000001,Public Health Department,601-544-6766,"http://msdh.ms.gov/msdhsite/_static/19,866,166.html",,,,,,,,,provider website,,,POINT (-89.2975774 31.3242151)
b08514a6-a473-413a-927f-d9fbddf59362,t,f,t,t,AdventHealth Centra Care Poinciana,3759 Pleasant Hill Road,Kissimmee,FL,34746.0,28.1842261,-81.4386069,Urgent Care,863-419-2723,https://centracare.adventhealth.com/urgent-care/poinciana,Sunday: 8 am to 5 pm;Monday: 8 am to 8 pm;Tuesday: 8 am to 8 pm;Wednesday: 8 am to 8 pm;Thursday: 8 am to 8 pm;Friday: 8 am to 8 pm;Saturday: 8 am to 5 pm,t,t,t,863-419-2723,https://www.adventhealth.com/hospital/adventhealth-heart-florida/schedule-urgent-care?location=3759%2BPleasant%2BHill%2BRoad%252C%2BKissimmee%252C%2BFL%252C%2B34746,,Formerly known as Urgent Care Poinciana,provider website,,,POINT (-81.4386069 28.1842261)
2ed39fcd-8e84-4f0a-a446-293892558f14,f,f,t,f,Potter County State Health Center,46 Elk Street,Coudersport,Pennsylvania,,41.765390000000004,-78.04120999999999,Public Health Department,814-274-3626,http://webserver.health.state.pa.us/health/comm/comm.asp?county=all,,,,,,,,,provider website,,,POINT (-78.04121 41.76539)
97f4bfd8-fe50-4f43-8306-14384f97b82c,f,f,t,f,Sonoma County Health Department,3313 Chanate Road,Santa Rosa,California,,38.468266,-122.7092,Public Health Department,707-565-4711,,,,,,,,,,provider website,,,POINT (-122.7092 38.468266)
c984f350-9c2e-44ae-9bc8-6af3611ec5c3,f,f,t,f,Health Officer - Maidstone,508 Vermont 102,Maidstone,Vermont,,44.57752979999999,-71.5546478,Public Health Department,802-676-3210,,,,,,,,,,provider website,,,POINT (-71.5546478 44.5775298)
1a4e19bc-856d-4b78-b61c-f9fb49be2b7e,f,f,t,f,Louisiana Health Department,5593 Louisiana 311,Houma,Louisiana,,29.5897022,-90.7390405,Public Health Department,985-857-3615,,,,,,,,,,provider website,,,POINT (-90.7390405 29.5897022)
93dfc0b8-571d-4144-a17a-2e539fd22bcc,f,f,t,f,Springfield Health Officer,77 Hartness Avenue,Springfield,Vermont,,43.292792999999996,-72.47255,Public Health Department,802-885-9200,http://healthvermont.gov/local/district/springfield.aspx,,,,,,,,,provider website,,,POINT (-72.47255 43.292793)
a8d53796-7d36-4fbe-b001-9812efe29ccb,f,f,t,f,Hubbardton Health Officer,1831 Monument Hill Road,Castleton,Vermont,,43.716865999999996,-73.159065,Public Health Department,802-273-2951,,,,,,,,,,provider website,,,POINT (-73.159065 43.716866)
e8ccf94a-4ac1-405d-a6fd-4a0d99c62038,t,f,t,f,Yale New Haven Children's Hospital - Bridgeport Campus,267 Grant Street,Bridgeport,CT,6611.0,41.188987299999994,-73.1664362,Hospital,203-384-3000,https://www.ynhhs.org/locations/bridgeport-267-grant-street-childrens.aspx,Call ahead,t,t,t,833-275-9644,https://www.ynhhs.org/ondemand.aspx,https://www.ynhhs.org/patient-care/covid-19/covid-19-testing.aspx,"Reach out to your doctor or healthcare facility if you have an upcoming appointment for latest information on hours of operation and visitor restrictions. Many offices are now offering telemedicine services during this time. We want to make sure you receive the care you need, when you need it. If you think you have COVID-19 symptoms, call your doctor or healthcare facility before visiting",provider website,,,POINT (-73.1664362 41.1889873)
50b2ece2-8918-4131-88bd-6d0779e0f392,f,f,t,f,Levy County Health Department,West Main Street,Bronson,Florida,,29.4420322,-82.646738,Public Health Department,352-486-5300,http://www.doh.state.fl.us/chdlevy/,,,,,,,,,provider website,,,POINT (-82.646738 29.4420322)
675bc9b8-db0a-47d7-a924-356ac8211f63,f,f,f,f,Barnwell County Health Department,11015 Ellenton Street,Barnwell,South Carolina,,33.254888300000005,-81.3783707,Public Health Department,803-551-1061,http://www.scdhec.gov/health/region5/barnwell.htm,,f,t,f,,,,,provider website,,,POINT (-81.3783707 33.2548883)
3ae4abcd-f38d-4f8b-a51d-3672830991d1,f,f,t,f,Lebanon Health Department,1600 South Main Street,Lebanon,Oregon,,44.53181,-122.90711999999999,Public Health Department,541-451-5932,,,,,,,,,,provider website,,,POINT (-122.90712 44.53181)
f1c2ef9c-8a53-4c84-aff1-8fd1288e2c7d,f,f,f,f,Florida State Health Department,14 North Eustis Street,Eustis,Florida,,28.852884000000003,-81.68462,Public Health Department,352-357-1668,,,f,t,f,,,,,provider website,,,POINT (-81.68462 28.852884)
af3b31fc-c52a-44b3-bdb9-5c9c5625f3a0,f,f,f,f,New York State Health Department,161 Delaware Avenue,Delmar,NY,,42.6295987,-73.8114981,Public Health Department,518-478-1000,https://www.health.ny.gov/,,f,t,f,,,,Please note review the latest information here: https://coronavirus.health.ny.gov/home,provider website,,,POINT (-73.8114981 42.6295987)
9e72eb58-3fba-4ef6-8a4a-bce79f64e9d6,t,t,t,t,Atlantic City Health Department,1301 Bacharach Boulevard,Atlantic,NJ,,39.36316,-74.42723000000001,Urgent Care,609-347-6463,http://www.cityofatlanticcity.org/con_gov_healthhuman_geninfo.asp,Open Daily: 8:00 AM - 8:00 PM,f,t,t,,https://www.clockwisemd.com/hospitals/542/appointments/new,,https://www.wdhospital.org/wdh/about-wdh/coronavirus-covid-19-updates,provider website,,,POINT (-74.42723 39.36316)
09f8c018-f464-4953-a896-bb41093d046c,f,f,t,f,Sarpy/Cass Department of Health and Wellness,701 Olson Drive,Papillion,Nebraska,,41.13962,-96.0387,Public Health Department,402-339-4334,http://www.sarpy.com/health,,,,,,,,,provider website,,,POINT (-96.0387 41.13962)
53e5f933-39a6-4190-9c1a-39e2b63389a2,f,f,t,f,Humboldt County Health Department,77 Walnut Way,Willow Creek,California,,40.939816,-123.62725,Public Health Department,530-629-2410,,,,,,,,,,provider website,,,POINT (-123.62725 40.939816)
434cc8af-284d-47c9-810c-f85d0ec5ba6c,f,f,t,f,Crawford County Health Department,105 West Pointer Trail,Van Buren,Arkansas,,35.459225,-94.36359,Public Health Department,479-474-6391,,,,,,,,,,provider website,,,POINT (-94.36359 35.459225)
d8800e0c-0a82-4238-b9c0-1fd9ae29c61f,t,f,t,t,General Internal Medicine Center at UW Medical Center-Roosevelt,"4245 Roosevelt Way NE, 3rd Floor",Seattle,WA,98105.0,47.65868,-122.31778,Clinic,206-598-8750,https://www.uwmedicine.org/locations/general-internal-medicine-center-uwmc-roosevelt,,t,t,t,,https://www.uwmedicine.org/services/virtual-clinic,https://www.uwmedicine.org/coronavirus,"If you have symptoms like cough, fever or other respiratory problems, contact your doctor by phone or eCare before coming to a clinic or hospital. You may also contact the UW Medicine Virtual Clinic or schedule a telehealth visit through eCare.",provider website,,,POINT (-122.31778 47.65868)
46ec8df2-720d-4061-a183-c6712c604a07,f,f,t,f,Pomfret Health Officer,"5218 Pomfret Road, Town Hall",North Pomfret,Vermont,,43.705321999999995,-72.51528,Public Health Department,802-457-3861,,,,,,,,,,provider website,,,POINT (-72.51528 43.705322)
790fb80e-b45e-4f0f-90a2-55c1d758412f,f,f,t,f,Eastern Idaho Health Department,820 Valley Centre Drive,Driggs,Idaho,,43.745514,-111.11379,Public Health Department,208-354-2220,,,,,,,,,,provider website,,,POINT (-111.11379 43.745514)
e2a9cd65-54f2-4ae8-9877-5a75e78a7148,f,f,t,f,Pine Bluff Health Department,2306 Rike Avenue,Pine Bluff,Arkansas,,34.209003,-92.026146,Public Health Department,870-535-2142,,,,,,,,,,provider website,,,POINT (-92.026146 34.209003)
e971c299-247b-45c3-82d2-fc693321bd72,f,f,t,f,Russell County Health Department,211 Fruit of the Loom Drive,Jamestown,Kentucky,,37.010082000000004,-85.076515,Public Health Department,270-343-2181,,,,,,,,,,provider website,,,POINT (-85.076515 37.010082)
1f60c94c-bce5-4dab-80f2-c92b654ec694,f,f,t,f,Lea County Public Health Office - Hobbs,1923 North Dal Paso Street,Hobbs,New Mexico,,32.7213323,-103.1281742,Public Health Department,575-397-2463,,,,,,,,,,provider website,,,POINT (-103.1281742 32.7213323)
a11933ac-f240-4529-8b54-b8a3d6e89860,t,t,f,f,Carroll County Health Department,822 South Mill Road,Mount Carroll,IL,,42.089874,-89.98657,Public Health Department,815-244-8855,http://www.ccphd.org/,,f,t,f,,,http://www.dph.illinois.gov/topics-services/diseases-and-conditions/diseases-a-z-list/coronavirus/health-care-providers/PUI-decision-matrix,"2019-nCoV Disclaimer: The contact information in this directory is for the ‘primary contact’ at each local health department and may not be the best point of contact for Novel Coronavirus (2019-nCoV) response activities. While you can still use this information, note that you will likely need to be redirected to a more appropriate contact person at the agency",entity website,,,POINT (-89.98657 42.089874)
e3eb6b1d-c625-4767-8dfe-198b5f23094f,f,t,t,f,Butler County Health Department,131 Jones Street,Georgiana,AL,,31.6359881,-86.7441634,Public Health Department,334-376-0776,,,,,,,,,,provider website,,,POINT (-86.7441634 31.6359881)
6ce5bb83-e03e-4728-a226-dfa2abec0164,t,f,t,t,SSM Health Urgent Care,1296 Jeffco Blvd.,Arnold,MO,63010.0,38.43606488,-90.37478597,Clinic,636-321-8610,https://www.ssmhealth.com/locations/location-details/urgent-care-arnold,By appointment,f,t,t,,,Determined by PCP,,https://krocnews.com/covid-19-mayo-opens-second-coronavirus-testing-site/,,,POINT (-90.37478597 38.43606488)
9f69e2fe-032c-435d-a8a8-501804e838d0,f,t,t,f,St Clair County Health Department,31675 U.s. 411,Ashville,AL,,33.8389055,-86.249151,Public Health Department,205-594-7944,,,,,,,,,,provider website,,,POINT (-86.249151 33.8389055)
934cabba-cb6f-495f-879a-d56a00390549,f,f,t,f,West Rutland Health Officer,35 Marble Street,West Rutland,Vermont,,43.594975,-73.04812,Public Health Department,802-438-2263,,,,,,,,,,provider website,,,POINT (-73.04812 43.594975)
06633e77-2b77-4852-8d03-60c6e59e0a06,t,f,f,t,Pali Momi Medical Center,98-1079 Moanalua Rd,Aiea,HI,96701.0,21.39682685,-157.8977272,Medical Center,877-709-9355,https://www.hawaiipacifichealth.org/,Daily 8am - 5pm,f,t,f,,,https://www.hawaiipacifichealth.org/hph-covid-19-updates/covid-19-testing/,"Patients will need a doctor’s order for the test, along with a valid form of identification and an insurance card. A normal co-payment may apply since testing is handled by a private lab. Patients should check with their insurance provider for more information on any costs associated with the test. The lab will handle billing directly with patients, including those who do not have insurance.",https://www.hawaiipacifichealth.org/coronavirus,,,POINT (-157.8977272 21.39682685)
a273f488-5b13-4bf2-b6df-32f5a9fe212a,f,t,t,f,Cedar County Health Department,1401 South Park Street,El Dorado Springs,MO,,37.860363,-94.01850999999999,Public Health Department,417-876-2511,http://www.cedarcountyhospital.org/cc_medical_mall_health.php,,f,t,f,,,,,dph website,,,POINT (-94.01851 37.860363)
7aefc1d0-991a-4fff-8196-e9fd63ca93e8,f,f,t,f,Ashtabula County Health Department,12 West Jefferson Street,Jefferson,Ohio,,41.738323,-80.77035500000001,Public Health Department,440-576-6010,http://www.ashtabulacountyhealth.com/,,,,,,,,,provider website,,,POINT (-80.770355 41.738323)
6e60f610-e6f8-4939-be6d-f3fb3f7ea0b7,t,f,f,t,Wilcox Medical Center,3-3420 Kuhio Hwy,Lihue,HI,96766.0,21.98208096,-159.3672647,Medical Center,877-709-9355,https://www.hawaiipacifichealth.org/,Daily 8am - 5pm,f,t,f,,,https://www.hawaiipacifichealth.org/hph-covid-19-updates/covid-19-testing/,"Patients will need a doctor’s order for the test, along with a valid form of identification and an insurance card. A normal co-payment may apply since testing is handled by a private lab. Patients should check with their insurance provider for more information on any costs associated with the test. The lab will handle billing directly with patients, including those who do not have insurance.",https://www.hawaiipacifichealth.org/coronavirus,,,POINT (-159.3672647 21.98208096)
5403cc0b-efe5-4703-859b-64f4c0bcaf2d,f,f,t,f,Central Montana Health Department,712 West Main Street,Lewistown,Montana,,47.062458,-109.43042,Public Health Department,406-535-3983,http://cmhd-fcno.org/site/,,,,,,,,,provider website,,,POINT (-109.43042 47.062458)
1ce5b163-15f2-4760-81f7-f697492e95f2,t,f,t,f,St. Agnes Hospital,430 E. Division St.,Fond du Lac,WI,54935.0,43.7785905,-88.430633,Public Health Department,920-929-2300,https://www.ssmhealth.com/locations/st-agnes-hospital,,,,,,,,,provider website,,,POINT (-88.430633 43.7785905)
8a4ffdab-c163-469a-9540-1d482d86b4e9,f,f,t,f,Sanpete County Health Department,160 North Main Street,Manti,Utah,,39.267746,-111.63696000000002,Public Health Department,435-835-2117,,,,,,,,,,provider website,,,POINT (-111.63696 39.267746)
a8c1598f-4808-4e7d-b273-5c102ebf85db,f,f,t,f,Pennsylvania Health Department,329 Church Street,Danville,Pennsylvania,,40.961147,-76.61426,Public Health Department,570-275-7092,,,,,,,,,,provider website,,,POINT (-76.61426 40.961147)
9b919e37-d6e4-451d-8a20-879de5b2851d,f,f,t,f,Pondera County Health Department,300 North Virginia Street,Conrad,Montana,,48.178745,-111.94294,Public Health Department,406-278-5142,,,,,,,,,,provider website,,,POINT (-111.94294 48.178745)
54a6cf5a-43ba-4724-a12d-f9954eca0af0,f,f,t,f,Wake County Health Department,10 Sunnybrook Road,Raleigh,North Carolina,,35.786896,-78.58651,Public Health Department,919-250-4720,,,,,,,,,,provider website,,,POINT (-78.58651 35.786896)
72ded10c-8cdd-4315-bc34-0c2980da4ba1,f,f,t,f,Sweet Grass Community Health Department,115 West 5th Avenue,Big Timber,Montana,,45.83186,-109.95129399999999,Public Health Department,406-932-5449,http://www.co.sweetgrass.mt.us/health_department.htm,,,,,,,,,provider website,,,POINT (-109.951294 45.83186)
51e6e916-ef15-4b4b-9eb0-61a51b87bcc9,t,f,t,f,AHN West Side Health + Wellness Pavilion,4247 West Ridge Road,Erie,PA,16506.0,42.07747636,-80.16966509,Public Health Department,814-838-2468,https://www.ahn.org/coronavirus/where-to-go-for-help/testing,,,,,412-687-7348,,,,provider website,,,POINT (-80.16966509 42.07747636)
1406cf7f-4162-4a46-851f-0ac6f8f186b8,f,f,t,f,New Orleans Health Department,517 North Rampart Street,New Orleans,Louisiana,,29.959114000000003,-90.06976999999999,Public Health Department,504-658-2540,,,,,,,,,,provider website,,,POINT (-90.06977 29.959114)
c777f2f4-39e7-4b5a-a712-3b4ce0de9900,f,f,t,f,Jackson County Department of Public Health,538 Scotts Creek Road,Sylva,North Carolina,,35.389072,-83.205025,Public Health Department,828-586-8994,http://health.jacksonnc.org/,,,,,,,,,provider website,,,POINT (-83.205025 35.389072)
5f64feba-100a-41c5-bac7-5266920ab4e0,t,f,t,f,Primary Care Center – New Haven - York Street Campus,789 Howard Avenue,New Haven,CT,6519.0,41.3020726,-72.93521120000001,Primary Care,833-275-9644,,Call ahead,f,t,t,833-275-9644,https://www.ynhhs.org/ondemand.aspx,https://www.ynhhs.org/patient-care/covid-19/covid-19-testing.aspx,"Reach out to your doctor or healthcare facility if you have an upcoming appointment for latest information on hours of operation and visitor restrictions. Many offices are now offering telemedicine services during this time. We want to make sure you receive the care you need, when you need it. If you think you have COVID-19 symptoms, call your doctor or healthcare facility before visiting",provider website,,,POINT (-72.9352112 41.3020726)
5deedad9-65ef-4bce-ac5b-b52ea2d1f45d,f,f,t,f,South Carolina State Health Department,1309 College Street,Newberry,South Carolina,,34.27626,-81.61973,Public Health Department,864-321-2115,,,,,,,,,,provider website,,,POINT (-81.61973 34.27626)
09ee5135-f713-408b-8874-3201b8a65056,f,f,t,f,Utah State Health Department,736 South 900 East,St. George,Utah,,37.094947999999995,-113.56431599999999,Public Health Department,435-251-2870,,,,,,,,,,provider website,,,POINT (-113.564316 37.094948)
339ddbc4-34f0-49bd-9032-d737dfc4a016,f,t,f,f,New York City Department of Health and Mental Hygiene,125 Worth Street,New York,NY,,40.7157524,-74.002517,Public Health Department,212-788-4753,https://www1.nyc.gov/site/doh/index.page,,f,t,f,,,,Please note review the latest information here: https://coronavirus.health.ny.gov/home,provider website,,,POINT (-74.002517 40.7157524)
8ee9227e-5fe9-4d5e-a7cf-62e63e11c881,f,f,t,f,Town of Washington Depot Health Office,2 Bryan Hall Plaza,Washington,Connecticut,,41.6410724,-73.3207298,Public Health Department,860-868-0423,http://www.washingtonct.org/health.html,,,,,,,,,provider website,,,POINT (-73.3207298 41.6410724)
91141e83-76a6-4a31-a0ea-fda648262002,t,f,t,t,El Camino Health Urgent Care - San Jose,4150 N 1st St,San Jose,CA,95134.0,37.41552,-121.9546,Urgent Care,669-200-4558,https://carbonhealth.com/san-jose,,f,t,t,669-200-4558,https://patient.carbonhealth.com/?lng=en#/schedule?practiceId=5bdaef44-8ff0-439f-99d7-3285afcc6911&virtual=true&instant=true&&apptReasonId=a516b4f7-339d-47bc-910d-3b89b81e2e9a,,Please use the COVID-19 check my symptoms tool.,provider website,,,POINT (-121.9546 37.41552)
25cc7dea-ae19-444f-8eaa-ba6c26528cbe,t,f,t,t,Chesapeake ERgent Care,1071 MD-3,Gambrills,MD,21054.0,39.0257446,-76.6890143,Urgent Care,,,,f,t,t,,,"CDC criteria, negative for other viruses",,https://www.capitalgazette.com/coronavirus/ac-cn-anne-arundel-county-coronavirus-drive-thru-location-20200320-v2s6h2e36rb4ri5pjzug4etese-story.html,,,POINT (-76.6890143 39.0257446)
3db71092-b43c-4774-8eb9-83873087a218,f,f,f,f,Florida State Health Department,1700 Baker Avenue,Haines,Florida,,28.121512699999997,-81.61609320000001,Public Health Department,863-419-3252,,,f,t,f,,,,,provider website,,,POINT (-81.6160932 28.1215127)
9cc551df-bc2a-4714-a9f6-1f18d2454842,f,f,t,f,Charlotte Health Officer,159 Ferry Road,Charlotte,Vermont,,44.310963,-73.25022,Public Health Department,802-425-3071,,,,,,,,,,provider website,,,POINT (-73.25022 44.310963)
cee79a2b-70c2-4ee7-bfcd-e8d48d68fdf4,f,f,t,f,District Health Department 2,630 Progress Street,West Branch,Michigan,,44.26769,-84.24251,Public Health Department,989-345-5020,http://www.dhd2.org/,,,,,,,,,provider website,,,POINT (-84.24251 44.26769)
d877dccf-9bd6-4af0-9678-c5f03eee62f9,f,f,t,f,Pasco County Health Department,10841 Little Road,New Port Richey,Florida,,28.313959999999998,-82.66603,Public Health Department,727-861-5250,http://www.doh.state.fl.us/chdpasco/di_web/dihome.htm,,,,,,,,,provider website,,,POINT (-82.66603 28.31396)
764690c1-5d0e-4c2c-bfd4-1c70ac7d9653,f,f,t,f,Clinton Health Department,408 Cynthia Street,Clinton,Mississippi,,32.34935,-90.32382,Public Health Department,601-924-6012,,,,,,,,,,provider website,,,POINT (-90.32382 32.34935)
bb47a947-887e-4b2e-a04e-8b48a43c7e4d,t,f,t,f,RC Hospital & Clinics,100 Healthy Way,Olivia,MN,56277.0,44.7744015,-94.97260949999999,Public Health Department,,https://rchospital.com/coronavirus/,,,,,800-916-1836,,,,provider website,,,POINT (-94.9726095 44.7744015)
557d0b41-efc4-4ab7-b1bb-2e6f860b6d63,t,f,t,t,NorthBay HealthCare - Vacaville,"1679 E Monte Vista Ave, Suite 104",Vacaville,CA,95688.0,38.364864000000004,-121.96489,Urgent Care,707-624-7400,https://carbonhealth.com/vacaville,,f,t,t,707-624-7400,https://patient.carbonhealth.com/?lng=en#/schedule?practiceId=5bdaef44-8ff0-439f-99d7-3285afcc6911&virtual=true&instant=true&&apptReasonId=a516b4f7-339d-47bc-910d-3b89b81e2e9a,,Please use the COVID-19 check my symptoms tool.,provider website,,,POINT (-121.96489 38.364864)
acf0712c-02c2-4bd0-b7fc-9c1f39433e59,t,t,f,f,Cherokee County Health Department Canton Office,1219 Univeter Road,Canton,GA,,34.193295,-84.49391,Public Health Department,770-345-7371,http://www.nghd.org/cherokeehealth/,,f,t,f,,,,,provider website,,,POINT (-84.49391 34.193295)
0bf3c20e-e939-4063-ae5f-6f1dc99f4495,f,f,t,f,Hill County Health Department,302 4th Avenue,Havre,Montana,,48.551272999999995,-109.6771,Public Health Department,406-265-5481,http://www.hillcountyhealth.com/,,,,,,,,,provider website,,,POINT (-109.6771 48.551273)
5fd0902a-ff00-4343-9459-d245ca373e9e,t,f,t,f,PhysicianOne - Stratford,1040 Barnum Ave.,Stratford,CT,6614.0,41.1995935,-73.1329782,Urgent Care,833-275-9644,https://www.ynhhs.org/patient-care/urgent-care.aspx,Call ahead,f,t,t,833-275-9644,https://www.ynhhs.org/ondemand.aspx,https://www.ynhhs.org/patient-care/covid-19/covid-19-testing.aspx,"Reach out to your doctor or healthcare facility if you have an upcoming appointment for latest information on hours of operation and visitor restrictions. Many offices are now offering telemedicine services during this time. We want to make sure you receive the care you need, when you need it. If you think you have COVID-19 symptoms, call your doctor or healthcare facility before visiting",provider website,,,POINT (-73.1329782 41.1995935)
4d66d647-e88c-4266-95ec-550a02328d58,f,f,t,f,Shorewood/Whitefish Bay Health Department,2010 East Shorewood Boulevard,Shorewood,Wisconsin,,43.087379999999996,-87.88484,Public Health Department,414-847-2710,http://villageofshorewood.org/index.asp?type=b_basic&sec={2c2215d1-d4da-4697-9c65-9a65780116f0},,,,,,,,,provider website,,,POINT (-87.88484 43.08738)
27c58ae8-b82f-466d-8791-8c5319bbe378,f,f,t,f,Apache County Health Department,935 S 1st W,St. Johns,Arizona,,34.504498,-109.37961000000001,Public Health Department,928-337-4364,,,,,,,,,,provider website,,,POINT (-109.37961 34.504498)
40d07146-262f-4a53-8246-a52c16130495,t,t,f,f,Easthampton Health Department,50 Payson Avenue,Easthampton,MA,,42.265879999999996,-72.67055,Public Health Department,413-529-1430,https://easthamptonma.gov/index.php/health-department,,,t,t,211,,https://www.mass.gov/doc/covid-19-pui-criteria/download,"BEGINNING Saturday, March 14, 2020, residents can call 2-1-1 to learn more about COVID-19 prevention, symptoms, treatment. Information about testing, and guidance for people planning or returning from travel. This service is available 24/7 in multiple languages.",provider website,,,POINT (-72.67055 42.26588)
6da5287c-af5c-479f-83ba-9a89ffcc0785,f,f,t,f,Whitingham Health Officer,2948 Vermont 100,Whitingham,Vermont,,42.798429,-72.823039,Public Health Department,802-368-7887,,,,,,,,,,provider website,,,POINT (-72.823039 42.798429)
10608ad3-7b39-42e5-b517-cbbf7b5362a5,f,f,t,f,Bay County Health Department,1200 Washington Avenue,Bay,Michigan,,43.602123,-83.88719,Public Health Department,989-895-4009,http://www.baycounty-mi.gov/health/default.aspx,,,,,,,,,provider website,,,POINT (-83.88719 43.602123)
460a7397-4594-4cb8-bd42-8e09d3a39275,f,f,t,f,Shrewsbury Health Officer,9823 Cold River Road,Shrewsbury,Vermont,,43.529026,-72.82748000000001,Public Health Department,802-492-3511,http://www.shrewsburyvt.org/health.php,,,,,,,,,provider website,,,POINT (-72.82748 43.529026)
27ffce0b-ca13-41aa-b3dd-dc73e301a97f,t,f,f,f,Jefferson County Public Health Department,1295 Pearl Street,Beaumont,TX,,30.077434999999998,-94.09232,Public Health Department,409-835-8350,http://www.co.jefferson.tx.us/publichealth.htm,"7:00 a.m. – 8:00 p.m., 7 days per week",t,t,f,,,,People can get tested for COVID‑19 at drive‑thru locations in certain parts of Texas. Locations may use different screening criteria to determine if you are able get tested. Please contact the drive‑thru provider to see what their testing criteria is. We will update the drive‑thru testing list as information becomes available,dph website,,,POINT (-94.09232 30.077435)
1af9d643-4dc5-4153-90d1-96c7ff187060,f,f,t,f,Iberia Parish Health Unit Services,121 West Pershing Street,New Iberia,Louisiana,,30.003311,-91.82136,Public Health Department,337-373-0021,http://www.iberiaparishgovernment.com/dept-health.asp,,,,,,,,,provider website,,,POINT (-91.82136 30.003311)
024883bb-658f-4da3-836a-eff7a574816c,f,f,t,f,Butte County Public Health Department,202 Mira Loma Drive,Oroville,California,,39.522484000000006,-121.55278999999999,Public Health Department,530-538-7581,http://buttecounty.net/publichealth/,,,,,,,,,provider website,,,POINT (-121.55279 39.522484)
34d531cd-54af-44ef-a22f-f95df47b2fd2,t,f,t,f,Yale New Haven Children's Hospital,1 Park Street,New Haven,CT,6510.0,41.3043831,-72.936538,Hospital,203-688-4242,https://www.ynhhs.org/locations/new-haven-1-park-street.aspx,Call ahead,t,t,t,833-275-9644,https://www.ynhhs.org/ondemand.aspx,https://www.ynhhs.org/patient-care/covid-19/covid-19-testing.aspx,"Reach out to your doctor or healthcare facility if you have an upcoming appointment for latest information on hours of operation and visitor restrictions. Many offices are now offering telemedicine services during this time. We want to make sure you receive the care you need, when you need it. If you think you have COVID-19 symptoms, call your doctor or healthcare facility before visiting",provider website,,,POINT (-72.936538 41.3043831)
32bc03c4-ea3c-4cb1-84cc-c88acf1785b5,f,f,t,f,Pennsylvania State Health Department,2 State Road,Effort,Pennsylvania,,40.979205,-75.429991,Public Health Department,570-836-2981,,,,,,,,,,provider website,,,POINT (-75.429991 40.979205)
9d80aefa-dbfd-461d-9f9c-b8b3a792d521,f,f,t,f,Dickinson County Health Department,202 East Helen Street,Herington,Kansas,,38.67955,-96.9415,Public Health Department,785-258-2741,,,,,,,,,,provider website,,,POINT (-96.9415 38.67955)
fb2a143b-ffa6-4e4b-befb-76ccf7ea4f87,f,f,t,f,Hampshire County Health Department,9 Hc 71,Augusta,West Virginia,,39.30003,-78.6260851,Public Health Department,304-496-9640,,,t,t,t,,,https://www.doh.wa.gov/Emergencies/NovelCoronavirusOutbreak2020/TestingforCOVID19,https://www.doh.wa.gov/Emergencies/Coronavirus,provider website,,,POINT (-78.6260851 39.30003)
53ad98d9-ddaa-4e98-84f1-51221ac7a373,t,f,t,f,Champaign - Urbana Public Health District,201 West Kenyon Road,Champaign,IL,,40.134440000000005,-88.24741999999999,Public Health Department,217-352-7961,http://www.c-uphd.org/,,f,t,f,,,http://www.dph.illinois.gov/topics-services/diseases-and-conditions/diseases-a-z-list/coronavirus/health-care-providers/PUI-decision-matrix,"2019-nCoV Disclaimer: The contact information in this directory is for the ‘primary contact’ at each local health department and may not be the best point of contact for Novel Coronavirus (2019-nCoV) response activities. While you can still use this information, note that you will likely need to be redirected to a more appropriate contact person at the agency",entity website,,,POINT (-88.24742 40.13444)
384c1e09-eec8-4608-b573-d3a7ab09b025,t,t,t,t,North Bergen Health Department,1116 43rd St,North Bergen,NJ,,40.779720000000005,-74.026794,Public Health Department,201-392-2084,,7a-11p,f,t,t,,,FALSE,We encourage you to read through the FAQ section of the following site: https://covid19.nj.gov/faqs/nj-information/testing-information/where-are-testing-centers-in-new-jersey,dph website,,,POINT (-74.026794 40.77972)
5ef47124-5f0e-436c-9be7-7bbbd00a2ac7,f,t,f,f,West Newbury Board of Health,East Main Street,West Newbury,Massachusetts,,42.8099443,-71.0015748,Public Health Department,978-363-1100,,,,,,211,,https://www.mass.gov/doc/covid-19-pui-criteria/download,"BEGINNING Saturday, March 14, 2020, residents can call 2-1-1 to learn more about COVID-19 prevention, symptoms, treatment. Information about testing, and guidance for people planning or returning from travel. This service is available 24/7 in multiple languages.",provider website,,,POINT (-71.0015748 42.8099443)
dc55f805-950c-467d-8ce4-126d9414f79e,t,f,t,t,University of Maryland Shore Medical Center at Chestertown,100 Brown Street,Chestertown,MD,21620.0,39.21837,-76.064499,Medical Center,410-778-3300,https://www.umms.org/shore/locations/medical-center-chestertown,Call ahead,f,t,t,888-713-0711,,https://www.umms.org/coronavirus,,provider website,,,POINT (-76.064499 39.21837)
480ba208-b122-4655-b0ad-63e6dc3395d0,f,f,t,f,Caledonia Home Health Care and Hospice,161 Sherman Drive,St. Johnsbury,Vermont,,44.446983,-72.012,Public Health Department,802-748-8116,http://www.nchcvt.org/chhc.htm,,,,,,,,,provider website,,,POINT (-72.012 44.446983)
6131fde7-e63c-423b-b55d-0bf06d623652,f,f,f,f,Lee County Health Department,532 South Church Street,Tupelo,Mississippi,,34.2539,-88.70846,Public Health Department,662-841-9096,"http://www.msdh.ms.gov/msdhsite/_static/19,806,166.html",,f,t,f,,,,,provider website,,,POINT (-88.70846 34.2539)
2e8f6d15-4f2d-4ad4-b402-7fd09ca4875d,t,f,t,t,Kent Health Center,25742 104th Avenue Southeast,Kent,WA,,47.37186,-122.2024,Clinic,206-296-4500,,,t,t,t,,https://www.uwmedicine.org/services/virtual-clinic,https://www.uwmedicine.org/coronavirus,"If you have symptoms like cough, fever or other respiratory problems, contact your doctor by phone or eCare before coming to a clinic or hospital. You may also contact the UW Medicine Virtual Clinic or schedule a telehealth visit through eCare.",provider website,,,POINT (-122.2024 47.37186)
f5c0b339-353b-4b0f-a1e2-d48bd68c15fc,f,f,t,f,Walthall County Health Department,903 Union Road,Tylertown,Mississippi,,31.130814,-90.138374,Public Health Department,601-876-4924,,,,,,,,,,provider website,,,POINT (-90.138374 31.130814)
2b1c99b3-1e71-43e0-8e04-cb1981c92e5d,f,f,t,f,Polk County Health Department,1290 Golfview Avenue,Bartow,Florida,,27.881937,-81.82245999999999,Public Health Department,863-519-7900,http://www.mypolkchd.org/,,,,,,,,,provider website,,,POINT (-81.82246 27.881937)
348d3a00-08d7-453c-a4a5-7d9a3ffd2dd2,f,f,t,f,North Central Health District,31 North Main Street,Enfield,Connecticut,,42.00028,-72.59799,Public Health Department,860-745-0383,http://www.ncdhd.org/offices/enfieldoff.htm,,,,,,,,,provider website,,,POINT (-72.59799 42.00028)
7962d65a-2bc0-4b90-8136-8c0c1d4a1a85,f,t,t,f,City of Danville Health Department,326 Taylor Drive,Danville,Virginia,,36.55792,-79.41096,Public Health Department,434-799-5190,http://www.vdh.state.va.us/lhd/pittsylvania/,,,,,,,,,provider website,,,POINT (-79.41096 36.55792)
76acbb13-944d-4cfc-b91a-42fc8a7c6c9e,f,f,t,t,Southeast District Health Department,601 J Street,Auburn,Nebraska,,40.39904,-95.83881,Health Center,402-274-3993,http://www.sedhd.org/,8am-5pm,f,t,f,,https://coronavirus.novanthealth.org/,,,https://www.northcarolinahealthnews.org/2020/03/23/drive-thru-test-sites-come-and-go/,,,POINT (-95.83881 40.39904)
da7cd592-70d1-4de8-ba27-c76636dcd012,f,f,t,f,Fulton County Health Department,402 Troy Avenue,Hickman,Kentucky,,36.5718761,-89.1859024,Public Health Department,270-236-2825,http://www.purchasehealth.com/fulton_co_health_center_hickman.htm,,,,,,,,,provider website,,,POINT (-89.1859024 36.5718761)
f45a9005-3b0f-4f7e-8a3b-5396ec73e670,t,f,t,f,Grays Harbor County Health Department,2109 Sumner Avenue,Aberdeen,WA,,46.9755028,-123.8426148,Public Health Department,360-532-8631,,,,,,"800-525-0127, #",,,,provider website,,,POINT (-123.8426148 46.9755028)
8143a615-3d93-4702-bf2e-828cdac1e947,f,f,t,f,Clermont Health Department,560 West Desoto Street,Clermont,Florida,,28.554256,-81.76436600000001,Public Health Department,352-394-2951,,,,,,,,,,provider website,,,POINT (-81.764366 28.554256)
645cdfff-b6ad-4840-913e-f2321edc4d94,f,t,f,f,Brookfield Board of Health,6 Central Street,Brookfield,MA,,42.215057,-72.10199,Public Health Department,508-867-2930,http://www.brookfieldma.us/healthboard.htm,,,t,t,211,,https://www.mass.gov/doc/covid-19-pui-criteria/download,"BEGINNING Saturday, March 14, 2020, residents can call 2-1-1 to learn more about COVID-19 prevention, symptoms, treatment. Information about testing, and guidance for people planning or returning from travel. This service is available 24/7 in multiple languages.",provider website,,,POINT (-72.10199 42.215057)
6db22c50-4bb6-47fc-8060-863d74658885,f,f,t,f,Kershaw County Health Department,1116 Church Street,Camden,South Carolina,,34.246635,-80.609184,Public Health Department,803-425-6012,,,,,,,,,,provider website,,,POINT (-80.609184 34.246635)
3021ea12-9c0d-4045-a558-b9984e92bada,f,t,f,f,Sherborn Board of Health,19 Washington Street,Sherborn,MA,,42.240784000000005,-71.37105,Public Health Department,508-651-7852,http://health.sherbornma.org/,,,t,t,211,,https://www.mass.gov/doc/covid-19-pui-criteria/download,"BEGINNING Saturday, March 14, 2020, residents can call 2-1-1 to learn more about COVID-19 prevention, symptoms, treatment. Information about testing, and guidance for people planning or returning from travel. This service is available 24/7 in multiple languages.",provider website,,,POINT (-71.37105 42.240784)
8b926aa4-3727-4acf-90d2-44a6d92cc9b5,f,t,f,f,North Andover Health Department,1600 Osgood Street,North Andover,MA,,42.73082,-71.11289000000001,Public Health Department,978-688-9540,http://www.townofnorthandover.com/pages/nandoverma_health/index,,,t,t,211,,https://www.mass.gov/doc/covid-19-pui-criteria/download,"BEGINNING Saturday, March 14, 2020, residents can call 2-1-1 to learn more about COVID-19 prevention, symptoms, treatment. Information about testing, and guidance for people planning or returning from travel. This service is available 24/7 in multiple languages.",provider website,,,POINT (-71.11289 42.73082)
7576cb30-5ba8-45d3-9369-bd5211a8c92e,f,f,t,f,Town of Salem Public Health,270 Hartford Road,Salem,Connecticut,,41.492058,-72.27678,Public Health Department,860-859-3873,http://www.salemct.gov/pages/salemct_health/index,,,,,,,,,provider website,,,POINT (-72.27678 41.492058)
b8c49805-873d-475d-adbd-626d3047a78d,t,f,t,f,Internal Medicine Walk-in Clinic,9500 Euclid Ave.,Cleveland,Ohio,44195.0,41.502823,-81.62172199999999,Public Health Department,,https://my.clevelandclinic.org/locations/directions/448-internal-medicine-walkin-clinic,,,,,855-697-3750,,,,provider website,,,POINT (-81.621722 41.502823)
8b086513-07ef-45bc-a487-16905efc7338,f,f,f,f,New Mexico State Health Department,1850 Copper Loop,Las Cruces,New Mexico,,32.3026639,-106.80588119999999,Public Health Department,575-647-7634,,,f,t,f,,,,,provider website,,,POINT (-106.8058812 32.3026639)
ebbcfeaa-b84b-4354-8039-6006da0ba630,f,f,t,f,Cerro Gordo County Department of Public Health,22 North Georgia Avenue,Mason,Iowa,,43.15205,-93.196236,Public Health Department,641-421-9300,http://www.cghealth.com/,,,,,,,,,provider website,,,POINT (-93.196236 43.15205)
0a9829e1-8af4-4b34-9e33-4e34739ff8cd,f,f,t,f,Northeast Colorado Health Department,77 Main Avenue,Akron,Colorado,,40.158840000000005,-103.21278000000001,Public Health Department,970-345-6562,,,,,,,,,,provider website,,,POINT (-103.21278 40.15884)
6f1c5998-24b2-4702-9826-2c20b45b7197,f,f,t,f,Kentucky Health Department,441 Gorman Hollow Rd,Hazard,Kentucky,,37.238772999999995,-83.19794,Public Health Department,606-439-2361,,,,,,,,,,provider website,,,POINT (-83.19794 37.238773)
75dd81fa-55d1-4317-a800-63cfcd8e6cc5,f,f,t,f,Utah State Health Department,44 North Medical Drive,Salt Lake,Utah,,40.773109999999996,-111.83725,Public Health Department,801-584-8284,,,,,,,,,,provider website,,,POINT (-111.83725 40.77311)
4344f541-e4bc-464b-8d93-96807167ed45,t,t,f,f,Cass County Health Department,110 East Main Street,Beardstown,IL,,40.018153999999996,-90.43478,Public Health Department,217-323-2182,,,f,t,f,,,http://www.dph.illinois.gov/topics-services/diseases-and-conditions/diseases-a-z-list/coronavirus/health-care-providers/PUI-decision-matrix,"2019-nCoV Disclaimer: The contact information in this directory is for the ‘primary contact’ at each local health department and may not be the best point of contact for Novel Coronavirus (2019-nCoV) response activities. While you can still use this information, note that you will likely need to be redirected to a more appropriate contact person at the agency",entity website,,,POINT (-90.43478 40.018154)
10a0c9de-c342-4ccd-a1f5-a48342d895f7,f,f,t,f,Colorado Health Department,222 South 6th Street,Grand Junction,Colorado,,39.0655802,-108.5623178,Public Health Department,970-248-7162,,,,,,,,,,provider website,,,POINT (-108.5623178 39.0655802)
829f81a2-0f40-48f2-9d97-4bf947659777,t,f,t,f,Georgia State Health Department,105 North Ash Street,Jeffersonville,GA,,32.687313,-83.34484,Public Health Department,478-945-3351,https://dph.georgia.gov/,,t,t,f,,,,,provider website,,,POINT (-83.34484 32.687313)
f341e928-96d3-447a-a779-56a2e5765e3f,f,f,t,f,Gadsden County Health Department,680 Maple Street,Chattahoochee,Florida,,30.692954999999998,-84.83747,Public Health Department,850-663-2569,,,,,,,,,,provider website,,,POINT (-84.83747 30.692955)
356ee452-8752-486a-be2a-c65f8182d5fd,f,t,t,f,Jefferson County Health Department,13695 Lock 17 Road,Adger,AL,,33.4552,-87.30875999999999,Public Health Department,205-497-3329,,,,,,,,,,provider website,,,POINT (-87.30876 33.4552)
0c8b5c69-ba73-4cff-8bd3-37887d5e37b4,f,t,t,f,Perry County Health Department,1748 Washington Street,Marion,AL,,32.6115183,-87.3174187,Public Health Department,334-683-6153,,,,,,,,,,provider website,,,POINT (-87.3174187 32.6115183)
e5094730-24cb-4605-a9fc-ab27354f1ffa,t,f,f,f,NYU Winthrop Hospital,259 First Street,Mineola,NY,11501.0,40.7406366,-73.6430449,Public Health Department,516-663-0333,https://nyulangone.org/locations/nyu-winthrop-hospital,,t,t,f,347-377-3708,,,Please note review the latest information here: https://coronavirus.health.ny.gov/home,provider website,,,POINT (-73.6430449 40.7406366)
32371a89-6e59-4354-b69e-0675dc872242,f,f,t,f,Highlands County Health Department,400 South Lake Avenue,Avon Park,Florida,,27.592896999999997,-81.502174,Public Health Department,863-382-7355,,,,,,,,,,provider website,,,POINT (-81.502174 27.592897)
dae5988c-ea3c-4935-982f-d66d59f3268d,f,f,t,f,Waitsfield Public Health Officer,859 Old County Road,Waitsfield,Vermont,,44.194523,-72.8215,Public Health Department,802-496-3338,,,,,,,,,,provider website,,,POINT (-72.8215 44.194523)
010d981a-6364-4f4c-b10d-08b74a7f278b,f,f,t,f,Berlin Town Health Department,505 Silas Deane Highway,Wethersfield,Connecticut,,41.712223,-72.663536,Public Health Department,860-721-2822,,,,,,,,,,provider website,,,POINT (-72.663536 41.712223)
a8abfc77-9dfe-4b67-80c7-96fc685b0fd9,t,f,t,t,Memorial Hermann The Woodlands Medical Center Emergency Center,9250 Pinecroft Drive,The Woodlands,TX,77380.0,30.17133202,-95.45826741,Emergency Room,713-897-2300,http://www.memorialhermann.org/locations/the-woodlands-er---level-iii-trauma-center/,,f,t,t,,,,,entity website,,,POINT (-95.45826741 30.17133202)
43b38509-3e03-480a-babc-47b0c9916a4e,f,f,t,f,Hartford Health Department,131 Coventry Street,Hartford,Connecticut,,41.800740000000005,-72.69008000000001,Public Health Department,860-543-8800,,,,,,,,,,provider website,,,POINT (-72.69008 41.80074)
0b8d634f-178a-4feb-97ca-cbecabd869d9,f,f,t,f,Franklin Health Officer,5167 Main Street,Franklin,Vermont,,44.981857,-72.91575999999999,Public Health Department,802-285-2101,,,,,,,,,,provider website,,,POINT (-72.91576 44.981857)
3b26382f-39c7-44bc-85e8-c2c66b9297e6,f,f,t,t,Anaconda-Deer Health Department,115 West Commercial Avenue,Anaconda,Montana,,46.130314,-112.95293999999998,Hospital,406-563-7863,,Call ahead,t,t,f,,,,Please call before visiting the testing location to determine testing eligibility. Many sites still require physician orders or evaluation before testing is approved.,dph website,,,POINT (-112.95294 46.130314)
19c7b72d-7aec-46e7-9626-fb9d7918f4c2,f,f,t,f,Mount Pleasant Health Department,1189 Iron Bridge Drive,Mount Pleasant,South Carolina,,32.831818,-79.82251,Public Health Department,843-856-1210,,,,,,,,,,provider website,,,POINT (-79.82251 32.831818)
53cdd35b-c364-4153-9f0f-adf1e6e86910,f,t,f,f,Ashland Board of Health,101 Main Street,Ashland,MA,,42.260494,-71.46497,Public Health Department,508-881-0100,http://www.ashlandmass.com/listtest/offices-departments/health-agent-office,,,t,t,211,,https://www.mass.gov/doc/covid-19-pui-criteria/download,"BEGINNING Saturday, March 14, 2020, residents can call 2-1-1 to learn more about COVID-19 prevention, symptoms, treatment. Information about testing, and guidance for people planning or returning from travel. This service is available 24/7 in multiple languages.",provider website,,,POINT (-71.46497 42.260494)
a714563e-8270-406d-9367-af3d6de84e6b,t,f,t,f,PhysicianOne - Enfield,55 Hazard Avenue,Enfield,CT,6082.0,41.989953899999996,-72.5749064,Urgent Care,833-275-9644,https://www.ynhhs.org/patient-care/urgent-care.aspx,Call ahead,f,t,t,833-275-9644,https://www.ynhhs.org/ondemand.aspx,https://www.ynhhs.org/patient-care/covid-19/covid-19-testing.aspx,"Reach out to your doctor or healthcare facility if you have an upcoming appointment for latest information on hours of operation and visitor restrictions. Many offices are now offering telemedicine services during this time. We want to make sure you receive the care you need, when you need it. If you think you have COVID-19 symptoms, call your doctor or healthcare facility before visiting",provider website,,,POINT (-72.5749064 41.9899539)
9e0d558a-42d5-4a3e-b807-008e426e7695,f,t,t,f,Fayette County Health Department,215 1st Avenue Northwest,Fayette,AL,,33.685844,-87.831856,Public Health Department,205-932-5260,,,,,,,,,,provider website,,,POINT (-87.831856 33.685844)
e70ae4c2-ac5c-4466-ac41-bee555839c57,t,f,f,f,Houston Methodist Same Day Primary Care Clinic - El Camino Real,14903 El Camino Real,Houston,TX,77062.0,29.576398699999995,-95.1396975,Public Health Department,713-394-6724,https://www.houstonmethodist.org/pcg/same-day-clinics/,"7:00 a.m. – 8:00 p.m., 7 days per week",t,t,f,,,,People can get tested for COVID‑19 at drive‑thru locations in certain parts of Texas. Locations may use different screening criteria to determine if you are able get tested. Please contact the drive‑thru provider to see what their testing criteria is. We will update the drive‑thru testing list as information becomes available,dph website,,,POINT (-95.1396975 29.5763987)
ba153a09-f2da-4f9a-ba11-72d5bbf073b0,t,f,f,t,Barnes-Jewish West County Hospital,12634 Olive Blvd.,Creve Coeur,MO,63141.0,38.676305799999994,-90.46788459999999,Temporary,844-542-9378,https://wuphysicians.wustl.edu/locations,M-F 0700 - 1900,t,f,f,,,,Boone Hospital Center will presently open from 7 a.m. to 7 p.m. Monday through Friday. The drive-thru is located south of the hospital’s Emergency Department entrance on the southwest side. The drive-thru is offered for those who have been screened by a health professional and receive an order.,dph website,,,POINT (-90.4678846 38.6763058)
9616c174-67fd-4fb7-996f-2bd2d079e0ff,f,f,t,f,Kentucky Department For Public Health,275 East Main Street,Frankfort,Kentucky,,38.198475,-84.86074,Public Health Department,502-875-2255,http://chfs.ky.gov/dph/default.htm,,,,,,,,,provider website,,,POINT (-84.86074 38.198475)
9d93934f-f9df-49f3-b144-b8c56cd3c7b7,t,t,f,f,Carroll County Health Department,1004 Newnan Road,Carrollton,GA,,33.56749,-85.04688,Public Health Department,770-836-6667,http://health.state.ga.us/searchregional/countysearch.aspx,,f,t,f,,,,,provider website,,,POINT (-85.04688 33.56749)
84aa5c62-d004-4757-b183-26d579de352c,f,t,f,f,Washington Board of Health,8 Summit Hill Road,Washington,Massachusetts,,42.373394,-73.11561999999999,Public Health Department,413-623-2116,,,,,,211,,https://www.mass.gov/doc/covid-19-pui-criteria/download,"BEGINNING Saturday, March 14, 2020, residents can call 2-1-1 to learn more about COVID-19 prevention, symptoms, treatment. Information about testing, and guidance for people planning or returning from travel. This service is available 24/7 in multiple languages.",provider website,,,POINT (-73.11562 42.373394)
68b5d818-e3ef-436c-ac37-77eca8eaff76,f,t,f,f,Wareham Board of Health,54 Marion Road,Wareham,MA,,41.76001,-70.72327,Public Health Department,508-291-3100,http://www.wareham.ma.us/public_documents/warehamma_health/index,,,t,t,211,,https://www.mass.gov/doc/covid-19-pui-criteria/download,"BEGINNING Saturday, March 14, 2020, residents can call 2-1-1 to learn more about COVID-19 prevention, symptoms, treatment. Information about testing, and guidance for people planning or returning from travel. This service is available 24/7 in multiple languages.",provider website,,,POINT (-70.72327 41.76001)
dd07e5ba-b055-4476-920b-63b311eb37e9,f,t,t,t,Barry County Health Department,1000 South Lincoln Avenue,Monett,MO,,36.901270000000004,-93.92653,Hospital,417-354-8686,,,f,t,t,,,,"We’ve created a screening questionnaire based on CDC guidelines to help you determine the most appropriate level of care for you. If it is determined you need a Virtual Visit, this will be offered free of charge. Thank you for your patience as we are handling an extremely high volume of virtual evaluations at this time",entity website,,,POINT (-93.92653 36.90127)
1f273a0d-7321-4ae0-a42e-b41166704ef2,t,t,t,t,Little Ferry Health Department,16 Sabina Street,Little Ferry,NJ,,40.847640000000006,-74.04464,Public Health Department,201-641-3900,,7a-11p,f,t,t,,,,We encourage you to read through the FAQ section of the following site: https://covid19.nj.gov/faqs/nj-information/testing-information/where-are-testing-centers-in-new-jersey,dph website,,,POINT (-74.04464 40.84764)
31273bed-fddd-4b10-becc-9dc6a540e2a7,f,f,t,f,Suffolk Health Department,135 Hall Avenue,Suffolk,Virginia,,36.725914,-76.58551999999999,Public Health Department,757-514-4700,http://www.suffolk.va.us/health-dept/,,,,,,,,,provider website,,,POINT (-76.58552 36.725914)
e62d89c9-942b-4193-856b-fa0592fbcd39,f,f,t,f,Brooke County Health Department,624 Main Street,Wheeling,West Virginia,,40.076473,-80.72516999999999,Public Health Department,304-737-3679,,,,,,,,,,provider website,,,POINT (-80.72517 40.076473)
46b44197-9c62-42a6-9aec-c858a8e5d94f,f,f,t,f,Idaho Department of Health and Welfare,450 West State Street,Boise,Idaho,,43.61679779999999,-116.1959408,Public Health Department,208-334-5500,http://healthandwelfare.idaho.gov/health/tabid/60/default.aspx,,,,,,,,,provider website,,,POINT (-116.1959408 43.6167978)
85c7032a-2dbe-4eb9-83f4-a97457fd1aea,f,f,t,f,Preble County General Health District,615 Hillcrest Drive,Eaton,Ohio,,39.73223,-84.6466,Public Health Department,937-472-0087,http://www.pcghd.net/,,,,,,,,,provider website,,,POINT (-84.6466 39.73223)
ed6fc18e-b3f4-48f2-9ff7-1cf9ea32ee34,f,f,t,f,Pittsburg County Health Department,1400 College Avenue,McAlester,Oklahoma,,34.9331114,-95.7486608,Public Health Department,918-423-1267,,,,,,,,,,provider website,,,POINT (-95.7486608 34.9331114)
75c0c312-2a31-4e36-9941-dc4c4d719253,f,f,t,f,Navajo County Health Department,619 East 3rd Street,Winslow,Arizona,,35.022090000000006,-110.69198600000001,Public Health Department,928-289-6830,,,,,,,,,,provider website,,,POINT (-110.691986 35.02209)
fa177246-6c92-409a-88bd-55a4fefd0320,t,f,t,t,Sitka Public Helath Center,210 Moller Ave,Sitka,AK,99835.0,57.058792700000005,-135.34554640000002,Health Center,907-747-3255,http://dhss.alaska.gov/dph/Nursing/Pages/Southeast%20Region%20Public%20Health%20Center%20Pages/Sitka-Public-Health-Center.aspx,,f,t,t,,,,,provider website,,,POINT (-135.3455464 57.0587927)
d0c58504-d770-4f35-8aec-254b75b86ff5,f,f,t,f,Otter Tail County Public Health,560 West Fir Avenue,Fergus Falls,Minnesota,,46.296688,-96.08372,Public Health Department,218-998-8320,http://www.co.ottertail.mn.us/publichealth,,,,,,,,,provider website,,,POINT (-96.08372 46.296688)
ced6f9ef-80e5-4809-8320-caab41f26085,f,f,t,f,Putney Health Officer,21 Carl Snyder Dr,Putney,Vermont,,42.966443100000006,-72.5230532,Public Health Department,802-387-4372,,,,,,,,,,provider website,,,POINT (-72.5230532 42.9664431)
63aedab5-4b1c-40f4-92ea-1cd6d68c7fb9,t,f,t,f,Northeast Medical Group Walk-In Care - New London,194 Howard Street,New London,CT,6320.0,41.3447719,-72.0989399,Urgent Care,833-275-9644,https://www.ynhhs.org/patient-care/urgent-care.aspx,Call ahead,f,t,t,833-275-9644,https://www.ynhhs.org/ondemand.aspx,https://www.ynhhs.org/patient-care/covid-19/covid-19-testing.aspx,"Reach out to your doctor or healthcare facility if you have an upcoming appointment for latest information on hours of operation and visitor restrictions. Many offices are now offering telemedicine services during this time. We want to make sure you receive the care you need, when you need it. If you think you have COVID-19 symptoms, call your doctor or healthcare facility before visiting",provider website,,,POINT (-72.0989399 41.3447719)
d77116d9-61b5-44a1-9366-3943a0a2b983,t,f,t,t,Madison County Health Department,3059 Seneca Turnpike,Canastota,NY,,43.06677,-75.77496,Hospital,315-697-3947,,Call ahead,f,t,t,,,,"Reach out to your doctor or healthcare facility if you have an upcoming appointment for latest information on hours of operation and visitor restrictions. Many offices are now offering telemedicine services during this time. We want to make sure you receive the care you need, when you need it. If you think you have COVID-19 symptoms, call your doctor or healthcare facility before visiting",provider website,,,POINT (-75.77496 43.06677)
73d63b7b-883c-4721-bc72-cec2c2a515ba,t,f,,t,Hospital of the University of Pennsylvania,3400 Spruce Street,Philadelphia,PA,19104.0,39.950044,-75.19313100000001,Temporary,215-662-4000,https://www.pennmedicine.org/for-patients-and-visitors/penn-medicine-locations/hospital-of-the-university-of-pennsylvania,8am-5pm,f,t,t,267-785-8585,https://www.ahn.org/coronavirus/where-to-go-for-help/testing,Pt needs to call nurse hotline or make eVisit thru Mychart,,https://www.ahn.org/coronavirus/where-to-go-for-help/testing,,,POINT (-75.193131 39.950044)
478c8ca7-f480-41f9-bed8-6339fac7a463,f,f,t,f,Shawano County Health Department,311 North Main Street,Shawano,Wisconsin,,44.784225,-88.60944,Public Health Department,715-526-4808,http://www.co.shawano.wi.us/departments/?department=5c6edb95d748,,,,,,,,,provider website,,,POINT (-88.60944 44.784225)
0f92bcaa-55c7-4bbd-8814-55f850efe227,f,t,f,f,Dudley Board of Health,71 West Main Street,Dudley,MA,,42.04586,-71.89541,Public Health Department,508-949-8017,http://www.dudleyma.gov/boh.htm,,,t,t,211,,https://www.mass.gov/doc/covid-19-pui-criteria/download,"BEGINNING Saturday, March 14, 2020, residents can call 2-1-1 to learn more about COVID-19 prevention, symptoms, treatment. Information about testing, and guidance for people planning or returning from travel. This service is available 24/7 in multiple languages.",provider website,,,POINT (-71.89541 42.04586)
6b036981-74a2-46bd-96b1-e7a665cecd6a,f,f,t,f,Price County Health Department,126 Cherry Street,Phillips,Wisconsin,,45.690018,-90.3984,Public Health Department,715-339-2559,,,,,,,,,,provider website,,,POINT (-90.3984 45.690018)
bef2dc98-8d2b-42ff-a777-4715b08749e0,t,f,t,t,UI QuickCare - East,1632 Sycamore Street,Iowa City,IA,52240.0,41.6422174,-91.508043,Urgent Care,319-384-8822,https://uihc.org/locations/ui-quickcare-east,Call ahead,f,t,t,,https://uihc.org/use-our-video-visit-service-get-your-flu-or-covid-19-symptoms-checked-out,,If you have flu symptoms or health concerns related to the 2019 Novel Coronavirus (COVID-19) you can still schedule a video visit.,provider website,,,POINT (-91.508043 41.6422174)
b38e7903-7733-4961-b1a5-4d1c17312cae,f,f,t,f,Wicomico County Health Department,108 East Main Street,Salisbury,Maryland,,38.365505,-75.60016,Public Health Department,410-749-1244,http://www.wicomicohealth.org/,,,,,,,,,provider website,,,POINT (-75.60016 38.365505)
0e9a92b6-5229-4771-8e6a-11a6ca5ce919,f,f,t,f,Warren County Health Department,305 North State Street,Warren,Pennsylvania,,41.884518,-79.14378,Public Health Department,814-728-3566,,,,,,,,,,provider website,,,POINT (-79.14378 41.884518)
4ae620ca-b341-4743-be29-f0c05f50ba9b,t,f,t,t,Beaumont Hospital - Dearborn,18101 Oakwood Blvd,Dearborn,MI,48124.0,42.290725,-83.2142067,Medical Center,,https://www.beaumont.org/health-wellness/coronavirus,By appointment,f,t,t,800-592-4784,https://www.midmichigan.org/conditions-treatments/coronavirus/,Via telehealth screening,,https://www.mlive.com/news/saginaw-bay-city/2020/03/midmichigan-health-sets-up-coronavirus-testing-tent-as-regions-hospitals-prepare.html,,,POINT (-83.2142067 42.290725)
e4e4f953-f4ca-4b47-94b1-e731e82e25eb,f,f,t,f,Lake County Health Department,Tennessee 78,Tiptonville,Tennessee,,36.3782705,-89.4661723,Public Health Department,731-253-9954,,,,,,,,,,provider website,,,POINT (-89.4661723 36.3782705)
4ebf0701-1e18-456d-8939-7833902960a0,f,t,f,f,Shrewsbury Town Health Department,100 Maple Avenue,Shrewsbury,Massachusetts,,42.290046999999994,-71.722466,Public Health Department,508-841-8512,,,,,,211,,https://www.mass.gov/doc/covid-19-pui-criteria/download,"BEGINNING Saturday, March 14, 2020, residents can call 2-1-1 to learn more about COVID-19 prevention, symptoms, treatment. Information about testing, and guidance for people planning or returning from travel. This service is available 24/7 in multiple languages.",provider website,,,POINT (-71.722466 42.290047)
cd0ba2e3-ad33-43ed-b5a7-d470e2dbe293,f,f,t,f,Adams County Health Department,116 West Mulberry Street,West Union,Ohio,,38.795821999999994,-83.54635999999999,Public Health Department,937-544-5547,,,,,,,,,,provider website,,,POINT (-83.54636 38.795822)
7e38c530-5e04-4a5b-859e-7b32a99278c3,f,f,t,f,Pomperaug Health Department,486 Oxford Road,Oxford,Connecticut,,41.439068,-73.12329,Public Health Department,203-888-6891,,,,,,,,,,provider website,,,POINT (-73.12329 41.439068)
5f65827b-4adf-4808-99a2-a94998a2ef5a,t,f,t,f,King County Health Department,900 Oakesdale Avenue Southwest,Renton,WA,,47.472095,-122.2354,Public Health Department,206-296-4932,,,f,t,t,"800-525-0127, #",,https://www.doh.wa.gov/Emergencies/NovelCoronavirusOutbreak2020/TestingforCOVID19,https://www.doh.wa.gov/Emergencies/Coronavirus,provider website,,,POINT (-122.2354 47.472095)
b2a0c400-a400-4f11-a8a5-2cbea18c4244,t,f,t,t,Seattle King County Health Department,10808 Northeast 145th Street,Bothell,WA,,47.733044,-122.19746,Clinic,206-296-9814,,,t,t,t,"800-525-0127, #",https://www.uwmedicine.org/services/virtual-clinic,https://www.uwmedicine.org/coronavirus,"If you have symptoms like cough, fever or other respiratory problems, contact your doctor by phone or eCare before coming to a clinic or hospital. You may also contact the UW Medicine Virtual Clinic or schedule a telehealth visit through eCare.",provider website,,,POINT (-122.19746 47.733044)
c77ee22e-364d-453e-ada3-1d1913d01fc2,f,f,t,f,Socorro County Health Department,214 Neel Avenue,Socorro,New Mexico,,34.05964,-106.89926000000001,Public Health Department,575-835-0971,,,,,,,,,,provider website,,,POINT (-106.89926 34.05964)
106203d0-40af-4370-b4f7-f9083c68afc2,f,f,t,f,Duplin County Health Services,340 Seminary Street,Kenansville,North Carolina,,34.962856,-77.96688,Public Health Department,910-296-2130,http://www.duplincountync.com/governmentoffices/healthservices.html,,,,,,,,,provider website,,,POINT (-77.96688 34.962856)
731beb44-ca71-45d7-bea3-2a459bcbda63,f,f,f,f,Richland County Health Department,2000 Hampton Street,Columbia,South Carolina,,34.0091463,-81.0218668,Public Health Department,803-576-2980,http://www.richlandonline.com/departments/health/index.asp,,f,t,f,,,,,provider website,,,POINT (-81.0218668 34.0091463)
09684c4b-8e20-4ac1-9d6a-a96365dd1a92,f,f,t,f,Johnston County Health Department,517 North Brightleaf Boulevard,Smithfield,North Carolina,,35.512684,-78.33527,Public Health Department,919-989-5200,http://johnstonnc.com/mainpage.cfm?category_level_id=450,,,,,,,,,provider website,,,POINT (-78.33527 35.512684)
19db4015-c657-4034-91e3-a0faf0d55716,t,f,t,t,Sitka Medical Center (SMC),"700 Katlian Street, Suite E",Sitka,AK,99835.0,57.056065000000004,-135.34824,Medical Center,907-966-8761,https://searhc.org/location/sitka-medical-center-smc/,,f,t,t,907-966-8799,,https://covid19.searhc.org/,"For questions, please call 966.8799 (7 am - 4 pm). After hours, call the Nurse Advice Line at 1.800.613.0560",provider website,,,POINT (-135.34824 57.056065)
47ed7e03-2081-416f-8cd5-6d08332825db,f,f,t,f,Fayette County Health Department,100 New Salem Road,Uniontown,Pennsylvania,,39.910603,-79.74913000000001,Public Health Department,724-439-7400,,,,,,,,,,provider website,,,POINT (-79.74913 39.910603)
b8896e22-40cd-4069-8070-4d4a5b532693,f,f,t,f,Seneca County General Health District,71 South Washington Street,Tiffin,Ohio,,41.11565,-83.17671999999999,Public Health Department,419-447-3691,http://www.senecahealthdept.org/,,,,,,,,,provider website,,,POINT (-83.17672 41.11565)
85534d0b-7f1c-462f-ac5f-3ef8399ebe9e,f,t,f,f,Wenham Board of Health,138 Main Street,Wenham,MA,,42.603953999999995,-70.887886,Public Health Department,978-468-5520,http://wenhamma.gov/dpts_bds_comms/health.htm,,,t,t,211,,https://www.mass.gov/doc/covid-19-pui-criteria/download,"BEGINNING Saturday, March 14, 2020, residents can call 2-1-1 to learn more about COVID-19 prevention, symptoms, treatment. Information about testing, and guidance for people planning or returning from travel. This service is available 24/7 in multiple languages.",provider website,,,POINT (-70.887886 42.603954)
52b53020-6f34-408d-a27c-2b1f043c5be4,f,f,t,f,Town Health Officer - Panton,3176 Jersey Street,Panton,Vermont,,44.147137,-73.34166,Public Health Department,802-475-2333,,,,,,,,,,provider website,,,POINT (-73.34166 44.147137)
bb5bdc04-d6dd-4f16-bac9-06a55e1733f7,f,f,t,f,Davidson County Health Department,203 Old Lexington Road,Thomasville,North Carolina,,35.882828,-80.11345,Public Health Department,336-474-2780,,,,,,,,,,provider website,,,POINT (-80.11345 35.882828)
54ecd8ca-c3ce-4bc9-bccc-ad766d03542c,t,f,t,t,Hudson Regional Hospital - HUDSON COUNTY RESIDENTS ONLY,55 Meadowlands Pkwy,Secaucus,NJ,7094.0,40.7917444,-74.0734305,Public Health Department,,https://www.hudsonregionalhospital.com/,7a-11p,f,t,t,,,FALSE,We encourage you to read through the FAQ section of the following site: https://covid19.nj.gov/faqs/nj-information/testing-information/where-are-testing-centers-in-new-jersey,dph website,,,POINT (-74.0734305 40.7917444)
0be18431-7ebf-4c85-90a9-60e41096ec05,f,f,t,f,Orange Public Health Officer,392 U.s. 302,Orange,Vermont,,44.148013,-72.4012239,Public Health Department,802-479-2673,,,,,,,,,,provider website,,,POINT (-72.4012239 44.148013)
cb29d4cf-dd68-4d7e-93c0-fc69ef51dcfe,f,f,t,f,Vernon Deputy Health Officer,567 Governor Hunt Road,Vernon,Vermont,,42.779037,-72.52009,Public Health Department,802-257-0292,,,,,,,,,,provider website,,,POINT (-72.52009 42.779037)
a385c475-f58c-4055-9986-ff52ac99005b,f,f,f,f,California State Health Department,1889 North Rice Avenue,Oxnard,California,,34.217453000000006,-119.14204,Public Health Department,805-604-2926,,,f,t,f,,,,,provider website,,,POINT (-119.14204 34.217453)
ad99ea48-dff7-4de6-be40-f664dad6e94b,f,f,t,f,Polk County Health Department,1805 Hobbs Road,Auburndale,Florida,,28.042472999999998,-81.780235,Public Health Department,863-965-6333,,,,,,,,,,provider website,,,POINT (-81.780235 28.042473)
f17ef380-a9b1-48c4-8f43-664a34ee9e6e,t,f,t,t,New York-Presbyterian Och Spine Hospital,5141 Broadway,New York,NY,10034.0,40.8729,-73.9125,Hospital,844-697-2229,https://www.nyp.org/spinehospital,Call ahead,f,t,t,,https://nyulangone.org/locations/virtual-urgent-care?iid=int_org_global_banner_covid19_vuc,https://alertsnyulangone.org/patients?iid=int_org_global_banner_covid19,https://alertsnyulangone.org/patients?iid=int_org_global_banner_covid19,provider website,,,POINT (-73.9125 40.8729)
a23c9961-7cf3-49a7-b52f-cb00da1febaf,f,f,t,f,Klamath County Health Department,3314 Vandenberg Avenue,Klamath Falls,Oregon,,42.22051,-121.74821999999999,Public Health Department,541-883-1122,,,,,,,,,,provider website,,,POINT (-121.74822 42.22051)
bd4daaf3-a933-4be9-aa98-0535102d1b80,f,f,t,f,Kentucky Health Department,100 Highway 80,Hyden,Kentucky,,37.155485,-83.3695626,Public Health Department,606-672-7175,,,,,,,,,,provider website,,,POINT (-83.3695626 37.155485)
c46d54ff-3b0b-4277-9b3e-24747e2db183,f,t,t,f,Jackson County Health Department,313 South Liberty Street,Independence,MO,,39.089424,-94.41724,Public Health Department,816-404-6415,http://www.jacohd.org/,,f,t,f,,,,,dph website,,,POINT (-94.41724 39.089424)
6e665011-fc02-4b20-8560-b1a762e8b20c,t,t,f,f,City of Chelsea Health Department,500 Broadway,Chelsea,MA,,42.39281,-71.03405,Public Health Department,617-466-4090,https://www.chelseama.gov/health-human-services,,,t,t,211,,https://www.mass.gov/doc/covid-19-pui-criteria/download,"BEGINNING Saturday, March 14, 2020, residents can call 2-1-1 to learn more about COVID-19 prevention, symptoms, treatment. Information about testing, and guidance for people planning or returning from travel. This service is available 24/7 in multiple languages.",provider website,,,POINT (-71.03405 42.39281)
a2fde025-8bc5-4f40-ba86-6c05754f1403,t,t,f,f,Town of Agawam Health Department,36 Main Street,Agawam,MA,,42.088875,-72.625786,Public Health Department,413-786-0400,http://agawam.ma.us/241/Health-Department,,,t,t,211,,https://www.mass.gov/doc/covid-19-pui-criteria/download,"BEGINNING Saturday, March 14, 2020, residents can call 2-1-1 to learn more about COVID-19 prevention, symptoms, treatment. Information about testing, and guidance for people planning or returning from travel. This service is available 24/7 in multiple languages.",provider website,,,POINT (-72.625786 42.088875)
5daf2d1f-f34a-425f-b5bb-c35a3db89ac1,f,f,t,f,West Virginia Bureau For Public Health,350 Capitol Street,Charleston,West Virginia,,38.351085999999995,-81.63271,Public Health Department,304-558-2971,http://www.wvdhhr.org/bph/,,,,,,,,,provider website,,,POINT (-81.63271 38.351086)
acab1d84-66b8-49f4-aa2e-a021f61d7ebc,f,f,t,f,New Mexico Health and Environment Department,1190 South Saint Francis Drive,Santa Fe,New Mexico,,35.671528,-105.954994,Public Health Department,505-827-2387,http://www.health.state.nm.us/contact.html,,,,,,,,,provider website,,,POINT (-105.954994 35.671528)
e0d9a744-01a6-45f6-996b-49e3bf62bf5f,f,f,t,f,Cambridge Health Officer,2 Church Street,Burlington,Vermont,,44.480053000000005,-73.21276,Public Health Department,802-644-2251,,,,,,,,,,provider website,,,POINT (-73.21276 44.480053)
eb9dd41d-b92a-4bb9-9032-d2f467cefba5,f,f,t,f,New Milford Health Department,10 Main Street,New Milford,Connecticut,,41.576115,-73.41065,Public Health Department,860-355-6035,http://www.newmilfordhealth.org/,,,,,,,,,provider website,,,POINT (-73.41065 41.576115)
99f0c10b-f7a9-4e90-bfc3-3d4a81965364,f,f,t,f,Tennessee Department of Health,425 5th Avenue North,Nashville,Tennessee,,36.164967,-86.78135999999999,Public Health Department,615-741-7213,http://health.state.tn.us/,,,,,,,,,provider website,,,POINT (-86.78136 36.164967)
e402e1e8-595a-46f7-860e-0ae2ff816506,t,f,t,t,K. Hovnanian Children's Hospital,1945 NJ-33,Neptune City,NJ,7753.0,40.2079178,-74.03827,Public Health Department,732-775-5500,http://www.khovnanianchildrenshospital.com/,7a-11p,f,t,t,,,FALSE,We encourage you to read through the FAQ section of the following site: https://covid19.nj.gov/faqs/nj-information/testing-information/where-are-testing-centers-in-new-jersey,dph website,,,POINT (-74.03827 40.2079178)
4020582c-fa1d-458f-a510-e7c72b6bbce7,f,f,f,f,Florida State Health Department,2752 Enterprise Road,Orange,Florida,,28.906509999999997,-81.28935,Public Health Department,386-775-5289,,,f,t,f,,,,,provider website,,,POINT (-81.28935 28.90651)
8f3a98f9-424f-4577-9ae2-5b1c274e58f6,t,f,t,t,Bergen County Department of Health Services,327 East Ridgewood Avenue,Paramus,NJ,,40.9572516,-74.05820849999999,Public Health Department,201-634-2647,http://www.bergenhealth.org/,7a-11p,f,t,t,,,FALSE,We encourage you to read through the FAQ section of the following site: https://covid19.nj.gov/faqs/nj-information/testing-information/where-are-testing-centers-in-new-jersey,dph website,,,POINT (-74.0582085 40.9572516)
96ee6988-63f6-45d3-a042-d25a9d0d234b,f,f,t,f,Porterville Health Department,1055 West Henderson Avenue,Porterville,California,,36.078768200000006,-119.0410831,Public Health Department,559-788-1125,,,,,,,,,,provider website,,,POINT (-119.0410831 36.0787682)
fc10028c-376f-422a-970e-c1a36bcb4a0f,t,f,f,f,North Central Health District,811 Hemlock Street,Macon,GA,,32.833298,-83.63669,Public Health Department,478-751-6303,http://northcentralhealthdistrict.com/,,f,t,f,,,,,dph website,,,POINT (-83.63669 32.833298)
874f149a-0bcb-4928-bbee-eb6ceabfc64a,f,f,t,t,Beaver County Health Department,325 East Center Street,Beaver,Utah,,38.274227,-112.635544,Health Center,435-438-2108,,,f,t,t,,https://healthcare.utah.edu/virtual-care/virtual-visits/,https://healthcare.utah.edu/coronavirus/#whoshouldgettested,"If you are experiencing COVID-19 (coronavirus) related symptoms, please call 801-587-0712 before coming into the hospital, clinic, or health center.",provider website,,,POINT (-112.635544 38.274227)
ad8fadee-43a9-40ed-bdd7-a488f02b7b26,f,f,t,f,Massillon Health Department,845 8th Street Northeast,Massillon,Ohio,,40.80596,-81.51599,Public Health Department,330-830-1710,,,,,,,,,,provider website,,,POINT (-81.51599 40.80596)
78f1ce5f-c382-4998-8a31-c48741e1b0e8,f,t,f,f,Northborough Board of Health,63 Main Street,Northborough,MA,,42.320015000000005,-71.638145,Public Health Department,508-393-5009,http://www.town.northborough.ma.us/pages/northboroughma_bcomm/boh/index,,,t,t,211,,https://www.mass.gov/doc/covid-19-pui-criteria/download,"BEGINNING Saturday, March 14, 2020, residents can call 2-1-1 to learn more about COVID-19 prevention, symptoms, treatment. Information about testing, and guidance for people planning or returning from travel. This service is available 24/7 in multiple languages.",provider website,,,POINT (-71.638145 42.320015)
f990f286-a106-4ac0-82f8-3255584c4473,t,f,t,t,Whitman County Health Department,1205 Southeast Professional Mall Boulevard,Pullman,WA,,46.719063,-117.165054,Urgent Care,509-332-6752,,,t,t,t,"800-525-0127, #",https://www.uwmedicine.org/services/virtual-clinic,https://www.uwmedicine.org/coronavirus,"If you have symptoms like cough, fever or other respiratory problems, contact your doctor by phone or eCare before coming to a clinic or hospital. You may also contact the UW Medicine Virtual Clinic or schedule a telehealth visit through eCare.",provider website,,,POINT (-117.165054 46.719063)
0c036523-7113-4d38-848c-617d82597493,t,f,f,f,Emergency Department at CHI St. Luke's Health - Sugar Land Hospital,1317 Lake Pointe Parkway,Sugar Land,TX,77478.0,29.603754100000003,-95.6202678,Public Health Department,281-637-7000,https://www.chistlukeshealth.org/locations/emergency-department-chi-st-lukes-health-sugar-land-hospital,"7:00 a.m. – 8:00 p.m., 7 days per week",t,t,f,,,,People can get tested for COVID‑19 at drive‑thru locations in certain parts of Texas. Locations may use different screening criteria to determine if you are able get tested. Please contact the drive‑thru provider to see what their testing criteria is. We will update the drive‑thru testing list as information becomes available,dph website,,,POINT (-95.6202678 29.6037541)
e0fa64b7-8353-410d-b26b-331561ad7271,f,f,t,f,Benzie-Leelanau District Health Department,6051 Frankfort Highway,Benzonia,Michigan,,44.629974,-86.11492,Public Health Department,231-882-4409,http://www.bldhd.org/,,,,,,,,,provider website,,,POINT (-86.11492 44.629974)
9680aabc-f7c4-440c-8853-ee8f39bbf35b,f,f,t,f,Hand County Community Health Nurse,318 West 5th Street,Miller,South Dakota,,44.520615,-98.99221,Public Health Department,605-853-2147,,,,,,,,,,provider website,,,POINT (-98.99221 44.520615)
eeaa4255-21cf-439d-ba8a-00998c304fb8,f,f,t,f,Madison County Health Department,216 Boggs Lane,Richmond,Kentucky,,37.735079999999996,-84.28397,Public Health Department,859-623-7312,http://www.madison-co-ky-health.org/,,,,,,,,,provider website,,,POINT (-84.28397 37.73508)
338bdf8f-1836-4d64-826a-d26955663492,t,f,t,t,St Lawrence County Health Department,99 West Main Street,Gouverneur,NY,,44.33337,-75.47423,Hospital,315-287-0920,,Call ahead,f,t,t,,,,"Reach out to your doctor or healthcare facility if you have an upcoming appointment for latest information on hours of operation and visitor restrictions. Many offices are now offering telemedicine services during this time. We want to make sure you receive the care you need, when you need it. If you think you have COVID-19 symptoms, call your doctor or healthcare facility before visiting",provider website,,,POINT (-75.47423 44.33337)
7c597405-f7d0-430e-8244-64505beb52c3,f,f,t,f,Wake County Human Services,10 Sunnybrook Road,Raleigh,North Carolina,,35.786896,-78.58651,Public Health Department,919-250-4516,http://www.wakegov.com/humanservices/locations/sunnybrook.htm,,,,,,,,,provider website,,,POINT (-78.58651 35.786896)
e67ca849-8182-4549-bf27-0f5167154efc,f,f,t,f,Town Health Officer - Cornwall,2692 Vermont 30,Castleton,Vermont,,43.645866,-73.197372,Public Health Department,802-462-2775,,,,,,,,,,provider website,,,POINT (-73.197372 43.645866)
819b7af5-0dc6-4b90-b0e5-0c5666d28553,t,t,f,f,Belchertown Health Department,2 Jabish St,Belchertown,MA,,42.2769,-72.40088,Public Health Department,413-323-0406,http://www.belchertown.org/departments/health/,,,t,t,211,,https://www.mass.gov/doc/covid-19-pui-criteria/download,"BEGINNING Saturday, March 14, 2020, residents can call 2-1-1 to learn more about COVID-19 prevention, symptoms, treatment. Information about testing, and guidance for people planning or returning from travel. This service is available 24/7 in multiple languages.",provider website,,,POINT (-72.40088 42.2769)
8d0366c5-d06b-4244-b53b-6bf9278e3153,t,f,f,f,Chautauqua County Health Department,7 North Erie Street,Mayville,NY,,42.254517,-79.50545,Public Health Department,716-753-4312,http://chautauqua.ny.us/health/healthframe.htm,,f,t,f,,,,Please note review the latest information here: https://coronavirus.health.ny.gov/home,provider website,,,POINT (-79.50545 42.254517)
ac9d2b40-2296-4c70-8929-d2665e8a4ca2,f,f,t,f,Richford Health Officer,94 Main Street,Richford,Vermont,,44.99496,-72.67304,Public Health Department,802-848-7751,,,,,,,,,,provider website,,,POINT (-72.67304 44.99496)
b08709c5-dfe6-4eea-8def-3c9f797567b8,f,f,t,f,Vermillion County Health Department,825 South Main Street,Clinton,Indiana,,39.652485,-87.39820999999999,Public Health Department,765-832-3622,,,,,,,,,,provider website,,,POINT (-87.39821 39.652485)
e2b0ff2c-e5bc-4168-9b1f-af95a9237c14,t,t,t,t,Lyndhurst Township Health Department,601 Riverside Avenue,Lyndhurst,NJ,,40.810684,-74.136894,Public Health Department,201-804-2502,,7a-11p,f,t,t,,,,We encourage you to read through the FAQ section of the following site: https://covid19.nj.gov/faqs/nj-information/testing-information/where-are-testing-centers-in-new-jersey,dph website,,,POINT (-74.136894 40.810684)
823ece97-d901-4dd6-9a4e-b5a86d61230e,t,f,f,f,State of Alaska Health and Social Services,3601 C Street,Anchorage,AK,99811.0,61.187459999999994,-149.88658,Public Health Department,907-334-2260,http://dhss.alaska.gov/dph/Epi/id/Pages/COVID-19/default.aspx,,t,t,t,1-800-499-2964,,,"We serve 280 small communities and villages. If you do not know which health center is nearest you, please call 907-465-3150 or toll-free 1-800-499-2964.",provider website,,,POINT (-149.88658 61.18746)
d290e2d7-d1fc-413d-8082-ab843695ed81,f,f,t,f,Springfield - Greene County Public Health Center,227 East Chestnut Expressway,Springfield,MO,,37.215057,-93.29199,Public Health Department,417-864-1658,http://www.springfieldmo.gov/health/vital.html,,f,t,f,,,,,dph website,,,POINT (-93.29199 37.215057)
20e4242c-7355-4d65-85d6-935ba8a03fc6,f,f,t,f,Sumner County Health Department,1005 Union School Road,Gallatin,Tennessee,,36.40606,-86.44365,Public Health Department,615-206-1100,http://www.sumnertn.org/sumner%20county%20health%20department.aspx,,,,,,,,,provider website,,,POINT (-86.44365 36.40606)
a845da9f-d62b-4b77-b709-ac130e44c94a,f,t,f,f,Abington Board of Health,500 Gliniewicz Way,Abington,MA,,42.117725,-70.95407,Public Health Department,781-982-2119,http://abington.depina.net/top_navigation/elected_officials/board_of_health/index.asp,,,t,t,211,,https://www.mass.gov/doc/covid-19-pui-criteria/download,"BEGINNING Saturday, March 14, 2020, residents can call 2-1-1 to learn more about COVID-19 prevention, symptoms, treatment. Information about testing, and guidance for people planning or returning from travel. This service is available 24/7 in multiple languages.",provider website,,,POINT (-70.95407 42.117725)
6e3c5555-514f-440a-8166-112a77c7dcb1,f,f,t,f,Redding Health Department,100 Hill Road,Redding,Connecticut,,41.30316,-73.383705,Public Health Department,203-938-2559,,,,,,,,,,provider website,,,POINT (-73.383705 41.30316)
80c1228c-f54d-4465-8fca-5e201eadd41d,t,t,f,f,Walton County Health Department,1404 South Madison Avenue,Monroe,GA,,33.773247,-83.700066,Public Health Department,770-207-4125,http://publichealthathens.com/walton_county.htm,,f,t,f,,,,,provider website,,,POINT (-83.700066 33.773247)
4d087fa5-9e9a-4e5f-a810-94c9b4060064,f,t,t,t,Alliance City Health Department,537 East Market Street,Alliance,Ohio,,40.92093,-81.098045,Urgent Care,330-821-7373,http://www.cityofalliance.com/health/privacy.htm,Call ahead,f,t,t,,,,"(Updated 3/26/2020) All Nationwide Children’s Hospital Urgent Care locations remain open. Due to new visitor restrictions, only one adult may accompany a patient to any outpatient location. Call your child’s pediatrician or family doctor before seeking urgent care unless your child’s physician is unavailable or your child is experiencing a medical emergency.",provider website,,,POINT (-81.098045 40.92093)
6a7871e7-58ff-47c7-8a18-6e4822ecc336,f,f,t,t,Three Rivers Public Health Department,33 West 4th Street,Fremont,Nebraska,,41.432907,-96.49816,Clinic,402-727-5396,http://threeriverspublichealth.org/,,f,,,,,,,https://www.kfyrtv.com/content/news/Health-officials-discuss-COVID-19-testing-protocols-in-Minot--568873751.html,,,POINT (-96.49816 41.432907)
2d1e3b78-a404-438b-bf1d-d4fb74dd065a,f,f,t,f,Clay County Health Department,3229 Bear Run Boulevard,Orange Park,Florida,,30.124022999999998,-81.80203,Public Health Department,904-272-4529,,,,,,,,,,provider website,,,POINT (-81.80203 30.124023)
df4237c0-5905-403e-a869-696bffa2efa6,f,f,t,f,Hillsborough County Health Department,1105 East Kennedy Boulevard,Tampa,Florida,,27.950264,-82.45044,Public Health Department,813-307-8000,http://www.hillscountyhealth.org/,,,,,,,,,provider website,,,POINT (-82.45044 27.950264)
7e19256d-307f-44ba-97bf-a272255d3fb3,f,t,f,f,Quabbin Health District,126 East Main Street,Ware,MA,,42.2589806,-72.2391902,Public Health Department,413-967-9648,http://www.townofware.com/pages/warema_boh/index,,,t,t,211,,https://www.mass.gov/doc/covid-19-pui-criteria/download,"BEGINNING Saturday, March 14, 2020, residents can call 2-1-1 to learn more about COVID-19 prevention, symptoms, treatment. Information about testing, and guidance for people planning or returning from travel. This service is available 24/7 in multiple languages.",provider website,,,POINT (-72.2391902 42.2589806)
3034c33a-1c31-4f81-9146-73ed454efd8f,f,t,f,f,Town of Falmouth Health Department,59 Town Hall Square,Falmouth,MA,,41.551590000000004,-70.61816400000001,Public Health Department,508-495-7485,http://www.falmouthmass.us/depart.php?depkey=health,,,t,t,211,,https://www.mass.gov/doc/covid-19-pui-criteria/download,"BEGINNING Saturday, March 14, 2020, residents can call 2-1-1 to learn more about COVID-19 prevention, symptoms, treatment. Information about testing, and guidance for people planning or returning from travel. This service is available 24/7 in multiple languages.",provider website,,,POINT (-70.618164 41.55159)
232347b1-eac3-44b7-8fd9-4c85a21a96f2,f,f,t,f,Riverton Health Department,324 East Washington Avenue,Riverton,Wyoming,,43.023579999999995,-108.387344,Public Health Department,307-856-6454,,,,,,,,,,provider website,,,POINT (-108.387344 43.02358)
a60ef269-5721-46dc-83d4-f20aeef1ab42,t,f,t,t,The Doctor's Office Urgent Care of West Caldwell,556 Passaic Ave,West Caldwell,NJ,7006.0,40.84888235,-74.29770311,Public Health Department,,,7a-11p,f,t,t,873-808-2273,,FALSE,We encourage you to read through the FAQ section of the following site: https://covid19.nj.gov/faqs/nj-information/testing-information/where-are-testing-centers-in-new-jersey,dph website,,,POINT (-74.29770311 40.84888235)
d553b128-3fa0-4c86-b675-6b873d19becf,f,f,f,f,Florida State Health Department,9836 US-441 South,Leesburg,Florida,,28.824599699999997,-81.7931834,Public Health Department,352-360-6548,,,f,t,f,,,,,provider website,,,POINT (-81.7931834 28.8245997)
d3e4837f-cb94-4bfb-80c5-c08109c6677a,f,f,t,f,Nelson County Health Department,63 Courthouse Square,Lovingston,Virginia,,37.7606383,-78.8690398,Public Health Department,434-263-8315,http://www.vdh.state.va.us/lhd/thomasjefferson/nelson/,,,,,,,,,provider website,,,POINT (-78.8690398 37.7606383)
5aaf3409-94f6-4cea-b850-8f88f1d8e04c,f,f,t,f,Lock Haven Health Department,215 East Church Street,Lock Haven,Pennsylvania,,41.135864,-77.44381,Public Health Department,570-893-2437,,,,,,,,,,provider website,,,POINT (-77.44381 41.135864)
042b3261-817a-4dcf-91b0-8b29d53b0fe0,f,f,f,f,Florida State Health Department,909 North Stone Street,DeLand,Florida,,29.04277,-81.316345,Public Health Department,386-822-6215,,,f,t,f,,,,,provider website,,,POINT (-81.316345 29.04277)
79110f3a-4518-45a2-a3c7-450b21bf5117,t,f,f,f,Greenfield Health Department,20 Sanderson Street,Greenfield,MA,,42.595036,-72.595,Public Health Department,413-772-1404,https://greenfield-ma.gov/p/24/Health-Department,,f,t,t,211,,https://www.mass.gov/doc/covid-19-pui-criteria/download,"BEGINNING Saturday, March 14, 2020, residents can call 2-1-1 to learn more about COVID-19 prevention, symptoms, treatment. Information about testing, and guidance for people planning or returning from travel. This service is available 24/7 in multiple languages.",provider website,,,POINT (-72.595 42.595036)
59fc3d62-9473-460a-8f29-8f236e17a7d5,t,f,t,f,Fairfield Urgent Care Center - Fairfield,309 Stillson Road,Fairfield,CT,6825.0,41.1820797,-73.2514028,Urgent Care,833-275-9644,https://www.ynhhs.org/patient-care/urgent-care.aspx,Call ahead,f,t,t,833-275-9644,https://www.ynhhs.org/ondemand.aspx,https://www.ynhhs.org/patient-care/covid-19/covid-19-testing.aspx,"Reach out to your doctor or healthcare facility if you have an upcoming appointment for latest information on hours of operation and visitor restrictions. Many offices are now offering telemedicine services during this time. We want to make sure you receive the care you need, when you need it. If you think you have COVID-19 symptoms, call your doctor or healthcare facility before visiting",provider website,,,POINT (-73.2514028 41.1820797)
56b083bd-ee4a-4a5f-ad39-bce9977fefca,f,f,t,f,Turtle Mountain Chippewa,1300 Hospital Loop,Belcourt,North Dakota,,48.8434415,-99.7483567,Public Health Department,701-477-6111,http://www.ndhealth.gov/localhd/tmc/,,,,,,,,,provider website,,,POINT (-99.7483567 48.8434415)
819ea645-d92b-45f4-bbe8-a358f98c81a0,t,f,t,t,NYC Health+Hospitals (Coney Island),2601 Ocean Parkway,New York,NY,11572.0,40.586,-73.9657,Medical Center,,https://coronavirus.health.ny.gov/home,Call ahead,f,t,t,888-364-3065,,,"Reach out to your doctor or healthcare facility if you have an upcoming appointment for latest information on hours of operation and visitor restrictions. Many offices are now offering telemedicine services during this time. We want to make sure you receive the care you need, when you need it. If you think you have COVID-19 symptoms, call your doctor or healthcare facility before visiting",provider website,,,POINT (-73.9657 40.586)
65fb00cd-b9c5-4e08-85fc-3f2bc104beee,f,f,t,t,Akron Health Department,177 South Broadway Street,Akron,Ohio,,41.079285,-81.51703,Urgent Care,330-375-2960,http://www.ci.akron.oh.us/health04/index.htm,Call ahead,f,t,t,,,,"(Updated 3/26/2020) All Nationwide Children’s Hospital Urgent Care locations remain open. Due to new visitor restrictions, only one adult may accompany a patient to any outpatient location. Call your child’s pediatrician or family doctor before seeking urgent care unless your child’s physician is unavailable or your child is experiencing a medical emergency.",provider website,,,POINT (-81.51703 41.079285)
4f904739-dbb3-44cd-b0ea-d2864229d42a,f,f,t,f,Montgomery County Health Department,330 Pageant Lane,Clarksville,Tennessee,,36.5219687,-87.339812,Public Health Department,931-648-5747,http://www.montgomerycountytn.org/county/health/health.htm,,,,,,,,,provider website,,,POINT (-87.339812 36.5219687)
d498e90e-ee02-4155-b009-11ad89179d35,f,f,t,f,Randolph County Health Department,32 Randolph Avenue,Elkins,West Virginia,,38.9237861,-79.84360229999999,Public Health Department,304-636-0396,,,,,,,,,,provider website,,,POINT (-79.8436023 38.9237861)
7c8a5b56-a58a-41b1-ab31-e4e5e0321c28,f,f,f,f,Barbour County Health Department,23 Wabash Avenue,Philippi,West Virginia,,39.146526,-80.03728000000001,Public Health Department,304-457-1670,http://www.wvdhhr.org/wvlocalhealth/lhd_profiles/lhdreport/index.asp?countyname=barbour,,f,t,f,,,,,provider website,,,POINT (-80.03728 39.146526)
239cc212-3769-4dfc-ac57-f841159de869,t,f,t,t,Danbury Hospital,"95 Locust Ave,",Danbury,CT,6810.0,41.40482954,-73.44699061,Hospital,,https://www.westernconnecticuthealthnetwork.org/novel-coronavirus-covid19-update/covid19-collection-site-information#_ga=2.48465382.1541741055.1585055267-1007481626.1585055267,Appointment only,f,t,t,888-667-9262,https://www.westernconnecticuthealthnetwork.org/novel-coronavirus-covid19-update/covid19-collection-site-information#_ga=2.48465382.1541741055.1585055267-1007481626.1585055267,https://www.westernconnecticuthealthnetwork.org/novel-coronavirus-covid19-update/covid19-collection-site-information#_ga=2.48465382.1541741055.1585055267-1007481626.1585055267,,https://www.ynhhs.org/patient-care/covid-19/covid-19-testing.aspx,,,POINT (-73.44699061 41.40482954)
1fa8d0f8-820d-4dfd-bcc3-a62aa2b70375,f,f,t,f,Montpelier Public Health Officer,61 Main Street,Montpelier,Vermont,,44.259772999999996,-72.57566,Public Health Department,802-229-4913,http://www.montpelier-vt.org/department/70.html,,,,,,,,,provider website,,,POINT (-72.57566 44.259773)
7b0d6f60-6985-44b4-ba22-07e04c9c80f6,f,f,t,f,Town Health Officer - Jay,1036 Vermont 242,Jay,Vermont,,44.9484225,-72.4385641,Public Health Department,802-988-2996,,,,,,,,,,provider website,,,POINT (-72.4385641 44.9484225)
e3fd68e9-ca8f-4275-ab4d-48b8cce2e0e9,f,f,f,f,State of Hawaii Department of Health,1250 Punchbowl Street,Honolulu,Hawaii,,21.307676,-157.85518000000002,Public Health Department,808-586-4442,http://hawaii.gov/health,,f,t,f,,,,,provider website,,,POINT (-157.85518 21.307676)
7726f4fb-4c77-42c9-a7cb-2fe8fc99a0c6,f,f,t,f,Iowa Health Department,321 East 12th Street,Des Moines,Iowa,,41.591184999999996,-93.6008086,Public Health Department,515-281-5787,,,,,,,,,,provider website,,,POINT (-93.6008086 41.591185)
428fedbd-17fd-4ed1-b8d1-315a081c9a51,f,f,t,f,Allendale County Health Department,415 South Memorial Avenue,Walterboro,South Carolina,,32.898594,-80.66287,Public Health Department,843-584-3818,,,,,,,,,,provider website,,,POINT (-80.66287 32.898594)
d1298d68-3ef5-40f1-a7b5-3dac7531df9b,f,f,t,f,Stanford Public Health Office,1111 Stanford Drive Northeast,Albuquerque,New Mexico,,35.09316,-106.61756000000001,Public Health Department,505-841-4100,,,,,,,,,,provider website,,,POINT (-106.61756 35.09316)
e0431979-5333-4f8d-842a-751ea9f139ea,t,f,t,f,Perry County Health Department,County Road 45,Marion,AL,,32.604501899999995,-87.3177399,Public Health Department,334-683-6153,http://www.adph.org/perry/,Weekdays 8 a.m. - 5 p.m.,f,t,t,334-683-6153,,http://www.alabamapublichealth.gov/infectiousdiseases/cov-testing.html,"If a person has questions about being tested for COVID-19, they should call their healthcare provider to make arrangements for testing. It is important to call your healthcare provider's office before going in to let them know you may have COVID-19. This will help the healthcare provider's office take steps to keep others from getting infected or exposed to COVID-19. If you do not have a healthcare provider, please call 1-888-264-2256, starting March 14 at 8:00 a.m. In the event the line is busy, please try to call again.",provider website,,,POINT (-87.3177399 32.6045019)
b02f0470-3d58-475a-9d0f-e1bb2df8f3d9,f,f,t,f,Columbus Health Department,1555 Bryden Road,Columbus,Ohio,,39.96024,-82.95742,Public Health Department,614-645-8320,,,,,,,,,,provider website,,,POINT (-82.95742 39.96024)
7f1d6e66-d8d5-430b-8eba-a051c69adc4e,f,f,t,f,Saint Landry Parish Health Unit,308 West Bloch Street,Opelousas,Louisiana,,30.538140999999996,-92.08456,Public Health Department,337-948-0220,,,,,,,,,,provider website,,,POINT (-92.08456 30.538141)
9fc89dcc-b4e7-4aa8-95f9-e45f98420ac7,f,f,t,f,Milwaukee Health Department,841 North Broadway,Milwaukee,Wisconsin,,43.04166,-87.90815,Public Health Department,414-286-5987,,,,,,,,,,provider website,,,POINT (-87.90815 43.04166)
592c688c-f308-4bf8-9d98-82b0ca90d481,f,f,t,f,Northampton County Health Department,1600 Northampton Street,Easton,Pennsylvania,,40.68994,-75.23409000000001,Public Health Department,610-250-1825,,,,,,,,,,provider website,,,POINT (-75.23409 40.68994)
8fd83590-cd54-4a0d-88d6-65234b18adea,t,f,f,f,Tompkins County Health Department,401 Harris B Dates Drive,Ithaca,NY,,42.473682000000004,-76.54065,Public Health Department,607-274-6674,http://www.tompkins-co.org/health/,,f,t,f,,,,Please note review the latest information here: https://coronavirus.health.ny.gov/home,provider website,,,POINT (-76.54065 42.473682)
ebb61427-178e-4947-8fd9-dc254958a9f9,f,t,f,f,Holliston Board of Health,703 Washington Street,Holliston,MA,,42.200695,-71.42947,Public Health Department,508-429-0605,http://www.townofholliston.us/board_of_health.htm,,,t,t,211,,https://www.mass.gov/doc/covid-19-pui-criteria/download,"BEGINNING Saturday, March 14, 2020, residents can call 2-1-1 to learn more about COVID-19 prevention, symptoms, treatment. Information about testing, and guidance for people planning or returning from travel. This service is available 24/7 in multiple languages.",provider website,,,POINT (-71.42947 42.200695)
8560b53e-0600-485e-9a8d-2d84b0fa5643,t,f,t,f,Wentworth-Douglass Hospital,789 Central Avenue,Dover,NH,3820.0,43.21229,-70.874985,Public Health Department,603-742-5252,https://www.wdhospital.org/wdh,,,,,603-742-5252,,,,provider website,,,POINT (-70.874985 43.21229)
97ac0b2c-5660-4492-9816-fccb94f6df0a,f,f,t,f,South Central Health District - Jerome County,951 East Avenue H,Jerome,Idaho,,42.716877000000004,-114.50516499999999,Public Health Department,208-324-8838,http://www.phd5.idaho.gov/offices/index.htm,,,,,,,,,provider website,,,POINT (-114.505165 42.716877)
d8752918-747e-44c7-ba4c-fe0f782058b3,f,t,f,f,Boxborough Board of Health,29 Middle Road,Boxborough,MA,,42.482994,-71.514145,Public Health Department,978-263-1116,http://www.town.boxborough.ma.us/boxborough/tb=boh.html,,,t,t,211,,https://www.mass.gov/doc/covid-19-pui-criteria/download,"BEGINNING Saturday, March 14, 2020, residents can call 2-1-1 to learn more about COVID-19 prevention, symptoms, treatment. Information about testing, and guidance for people planning or returning from travel. This service is available 24/7 in multiple languages.",provider website,,,POINT (-71.514145 42.482994)
65d9a6db-0ab4-4b43-8616-fa06fdcd1dc0,f,f,t,f,Prairie County Health Department,217 W Park St,Terry,Montana,,46.791714,-105.310974,Public Health Department,406-635-2133,,,,,,,,,,provider website,,,POINT (-105.310974 46.791714)
db5d27f9-0c33-4006-9a1f-d18cef5116b9,f,f,f,f,New York State Health Department,77 Mohican Street,Glens Falls,NY,,43.30448,-73.6477,Public Health Department,518-793-3893,https://www.health.ny.gov/,,f,t,f,,,,Please note review the latest information here: https://coronavirus.health.ny.gov/home,provider website,,,POINT (-73.6477 43.30448)
f1366511-4359-4b4a-bd67-3b08ba40ff2c,t,f,,t,Willis Knighton Innovation Center,2105 Airline Dr,Bossier City,LA,71111.0,32.5330999,-93.7076786,Health Center,,,M-F: 8a-5p,f,,,,,,,https://www.arklatexhomepage.com/news/local-news/drive-thru-coronavirus-testing-available-with-doctors-order/,,,POINT (-93.7076786 32.5330999)
c64820ff-ffbc-4962-8530-6a47d0eb20c5,t,f,t,t,Houston Methodist Sugar Land Hospital,16655 Southwest Frwy.,Sugar Land,TX,77479.0,29.58988923,-95.63425896,Emergency Room,281-274-7979,https://www.houstonmethodist.org/locations/sugar-land/,,f,t,t,,,,,entity website,,,POINT (-95.63425896 29.58988923)
80200b1d-9c81-484b-9d81-f61ab6128a2e,f,f,t,f,Toe River Health Department,200 Medical Campus Drive,Burnsville,North Carolina,,35.915367700000004,-82.3336168,Public Health Department,828-682-7825,,,,,,,,,,provider website,,,POINT (-82.3336168 35.9153677)
035bbd8d-62a0-4c6c-b3f7-5560e172f75d,f,f,t,f,South Carolina State Government Health Department,149 North Congress Street,York,South Carolina,,34.997658,-81.239456,Public Health Department,803-684-7004,,,,,,,,,,provider website,,,POINT (-81.239456 34.997658)
199096a3-e558-4a40-8b1a-53713fc15845,f,t,t,f,Public Health Division Region 4,9 East Challenger Street,Roswell,New Mexico,,33.306995,-104.52213,Public Health Department,575-347-2409,,,,,,,,,,provider website,,,POINT (-104.52213 33.306995)
112e8291-5b3b-4640-8b91-48fdd7f0dcd8,f,f,t,t,Akron Health Department,161 South High Street,Akron,Ohio,,41.080162,-81.51805999999999,Urgent Care,330-643-1300,,Call ahead,f,t,t,,,,"(Updated 3/26/2020) All Nationwide Children’s Hospital Urgent Care locations remain open. Due to new visitor restrictions, only one adult may accompany a patient to any outpatient location. Call your child’s pediatrician or family doctor before seeking urgent care unless your child’s physician is unavailable or your child is experiencing a medical emergency.",provider website,,,POINT (-81.51806 41.080162)
baec9d7a-8add-4914-aee8-1feabec1fa31,f,f,t,f,Santa Fe Health Department,2040 South Pacheco Street,Santa Fe,New Mexico,,35.65524,-105.95857,Public Health Department,505-476-9025,,,,,,,,,,provider website,,,POINT (-105.95857 35.65524)
7d7008fd-7a4b-464b-b968-e144e55e7808,f,f,t,f,Calaveras County Public Health Department,891 Mountain Ranch Road,San Andreas,California,,38.188538,-120.66046999999999,Public Health Department,209-754-6460,http://www.co.calaveras.ca.us/departments/pub_health/phd_main.html,,,,,,,,,provider website,,,POINT (-120.66047 38.188538)
ff018c51-5c1a-416e-8975-1cc7856cd5f0,f,f,t,f,Placer County Health Department,11583 C Avenue,Auburn,California,,38.938805,-121.10403000000001,Public Health Department,530-889-7215,,,,,,,,,,provider website,,,POINT (-121.10403 38.938805)
779c43f8-42b8-4f01-93b8-324f62152082,f,f,t,f,Bellaire Health Department,209 Portage Drive,Bellaire,Michigan,,44.9768424,-85.2068938,Public Health Department,231-533-6255,,,,,,,,,,provider website,,,POINT (-85.2068938 44.9768424)
b17a9dcf-56e1-4aa7-942a-5fdcca3d820d,f,f,t,f,Alexandria Health Department,"Ste 118, 4480 King St",Alexandria,Virginia,,38.839783000000004,-77.105736,Public Health Department,703-838-4400,,,,,,,,,,provider website,,,POINT (-77.105736 38.839783)
270e987c-fb69-440d-a3c8-9de872b6685a,f,f,t,f,Price County Health Department,104 South Eyder Avenue,Phillips,Wisconsin,,45.686504,-90.39879599999999,Public Health Department,715-339-3054,http://www.co.price.wi.us/government/healthdepartment/default.htm,,,,,,,,,provider website,,,POINT (-90.398796 45.686504)
cd84ad59-531c-4146-8aa0-5aa2da323126,f,t,f,f,Dennis Health Department,685 Massachusetts 134,Dennis,MA,,41.703897399999995,-70.1552087,Public Health Department,508-760-6118,http://www.town.dennis.ma.us/dept/health/health.htm,,,t,t,211,,https://www.mass.gov/doc/covid-19-pui-criteria/download,"BEGINNING Saturday, March 14, 2020, residents can call 2-1-1 to learn more about COVID-19 prevention, symptoms, treatment. Information about testing, and guidance for people planning or returning from travel. This service is available 24/7 in multiple languages.",provider website,,,POINT (-70.1552087 41.7038974)
